[
  {
    "id": 29391348,
    "type": "wisata",
    "name": "Hotel Sukajadi",
    "category": "hotel",
    "lat": -6.8862096,
    "lon": 107.5970895,
    "address": "",
    "phone": "",
    "website": "",
    "openingHours": "",
    "description": "",
    "tags": {
      "name": "Hotel Sukajadi",
      "tourism": "hotel"
    }
  },
  {
    "id": 29392374,
    "type": "wisata",
    "name": "Imperium",
    "category": "hotel",
    "lat": -6.9050087,
    "lon": 107.6009357,
    "address": "",
    "phone": "",
    "website": "",
    "openingHours": "",
    "description": "",
    "tags": {
      "name": "Imperium",
      "tourism": "hotel"
    }
  },
  {
    "id": 32041537,
    "type": "wisata",
    "name": "Grace",
    "category": "restaurant",
    "lat": -6.8815495,
    "lon": 107.5944013,
    "address": "",
    "phone": "",
    "website": "",
    "openingHours": "",
    "description": "",
    "tags": {
      "amenity": "restaurant",
      "name": "Grace"
    }
  },
  {
    "id": 32041585,
    "type": "wisata",
    "name": "Tomodachi",
    "category": "restaurant",
    "lat": -6.8807109,
    "lon": 107.5959997,
    "address": "",
    "phone": "",
    "website": "",
    "openingHours": "",
    "description": "",
    "tags": {
      "amenity": "restaurant",
      "created_by": "JOSM",
      "name": "Tomodachi"
    }
  },
  {
    "id": 32041600,
    "type": "wisata",
    "name": "Ikan Bakar Pak Chi Met",
    "category": "restaurant",
    "lat": -6.8858733,
    "lon": 107.5962969,
    "address": "",
    "phone": "",
    "website": "",
    "openingHours": "",
    "description": "",
    "tags": {
      "amenity": "restaurant",
      "name": "Ikan Bakar Pak Chi Met"
    }
  },
  {
    "id": 32041698,
    "type": "wisata",
    "name": "Ny. Suharti",
    "category": "restaurant",
    "lat": -6.8843694,
    "lon": 107.6012683,
    "address": "Jalan Cipaganti",
    "phone": "",
    "website": "",
    "openingHours": "",
    "description": "",
    "tags": {
      "addr:city": "Bandung",
      "addr:housenumber": "171",
      "addr:street": "Jalan Cipaganti",
      "amenity": "restaurant",
      "name": "Ny. Suharti"
    }
  },
  {
    "id": 32041903,
    "type": "wisata",
    "name": "Bumbu Desa Pasir Kaliki",
    "category": "restaurant",
    "lat": -6.9027926,
    "lon": 107.5978878,
    "address": "Jalan Pasirkaliki",
    "phone": "",
    "website": "",
    "openingHours": "",
    "description": "",
    "tags": {
      "addr:city": "Bandung, Jawa Barat",
      "addr:housenumber": "160",
      "addr:street": "Jalan Pasirkaliki",
      "amenity": "restaurant",
      "cuisine": "regional",
      "name": "Bumbu Desa Pasir Kaliki"
    }
  },
  {
    "id": 32042016,
    "type": "wisata",
    "name": "Topaz",
    "category": "hotel",
    "lat": -6.8927539,
    "lon": 107.5841016,
    "address": "",
    "phone": "",
    "website": "",
    "openingHours": "",
    "description": "",
    "tags": {
      "created_by": "JOSM",
      "name": "Topaz",
      "tourism": "hotel"
    }
  },
  {
    "id": 32519040,
    "type": "wisata",
    "name": "Sapu Lidi",
    "category": "restaurant",
    "lat": -6.8977742,
    "lon": 107.6036158,
    "address": "",
    "phone": "",
    "website": "",
    "openingHours": "",
    "description": "",
    "tags": {
      "amenity": "restaurant",
      "created_by": "JOSM",
      "name": "Sapu Lidi"
    }
  },
  {
    "id": 32519045,
    "type": "wisata",
    "name": "Oishii Steak",
    "category": "restaurant",
    "lat": -6.9058695,
    "lon": 107.5931889,
    "address": "",
    "phone": "",
    "website": "",
    "openingHours": "",
    "description": "",
    "tags": {
      "amenity": "restaurant",
      "name": "Oishii Steak"
    }
  },
  {
    "id": 32519051,
    "type": "wisata",
    "name": "Dakken",
    "category": "restaurant",
    "lat": -6.9057417,
    "lon": 107.6176217,
    "address": "Jalan R.E. Martadinata",
    "phone": "",
    "website": "",
    "openingHours": "",
    "description": "",
    "tags": {
      "addr:city": "Cihapit, Bandung, Jawa Barat",
      "addr:housenumber": "67",
      "addr:street": "Jalan R.E. Martadinata",
      "amenity": "restaurant",
      "name": "Dakken"
    }
  },
  {
    "id": 32519052,
    "type": "wisata",
    "name": "Geulis",
    "category": "hotel",
    "lat": -6.8914029,
    "lon": 107.61281,
    "address": "",
    "phone": "",
    "website": "",
    "openingHours": "",
    "description": "",
    "tags": {
      "building": "yes",
      "building:levels": "5",
      "building:roof": "tile",
      "building:structure": "confined_masonry",
      "building:use": "accommodation",
      "building:walls": "brick",
      "name": "Geulis",
      "tourism": "hotel"
    }
  },
  {
    "id": 32519055,
    "type": "wisata",
    "name": "Simpang Raya",
    "category": "restaurant",
    "lat": -6.8990133,
    "lon": 107.6195912,
    "address": "",
    "phone": "",
    "website": "",
    "openingHours": "",
    "description": "",
    "tags": {
      "amenity": "restaurant",
      "name": "Simpang Raya"
    }
  },
  {
    "id": 32519056,
    "type": "wisata",
    "name": "Sindang Reret",
    "category": "restaurant",
    "lat": -6.8990098,
    "lon": 107.6197139,
    "address": "Jl. Surapati",
    "phone": "",
    "website": "",
    "openingHours": "",
    "description": "",
    "tags": {
      "addr:city": "Bandung, Jawa BArat",
      "addr:housenumber": "53",
      "addr:street": "Jl. Surapati",
      "amenity": "restaurant",
      "name": "Sindang Reret"
    }
  },
  {
    "id": 32519294,
    "type": "wisata",
    "name": "Tamani",
    "category": "restaurant",
    "lat": -6.9056137,
    "lon": 107.6103851,
    "address": "",
    "phone": "",
    "website": "",
    "openingHours": "",
    "description": "",
    "tags": {
      "amenity": "restaurant",
      "name": "Tamani"
    }
  },
  {
    "id": 32519340,
    "type": "wisata",
    "name": "Yoghurt Cisangkuy",
    "category": "restaurant",
    "lat": -6.9018456,
    "lon": 107.6214397,
    "address": "",
    "phone": "",
    "website": "",
    "openingHours": "",
    "description": "",
    "tags": {
      "amenity": "restaurant",
      "name": "Yoghurt Cisangkuy"
    }
  },
  {
    "id": 32519342,
    "type": "wisata",
    "name": "Road Cafe",
    "category": "restaurant",
    "lat": -6.9055352,
    "lon": 107.6271646,
    "address": "Jalan Cilaki",
    "phone": "",
    "website": "",
    "openingHours": "",
    "description": "",
    "tags": {
      "addr:housenumber": "41",
      "addr:postcode": "40114",
      "addr:street": "Jalan Cilaki",
      "amenity": "restaurant",
      "name": "Road Cafe"
    }
  },
  {
    "id": 32520353,
    "type": "wisata",
    "name": "Grand Hotel Preanger",
    "category": "hotel",
    "lat": -6.9213431,
    "lon": 107.611654,
    "address": "Jalan Asia Afrika",
    "phone": "",
    "website": "https://aerowisatahotels.com/",
    "openingHours": "",
    "description": "",
    "tags": {
      "addr:housenumber": "81",
      "addr:street": "Jalan Asia Afrika",
      "name": "Grand Hotel Preanger",
      "tourism": "hotel",
      "website": "https://aerowisatahotels.com/",
      "wikipedia": "nl:Grand Hotel Preanger"
    }
  },
  {
    "id": 1013447614,
    "type": "wisata",
    "name": "Arion Swiss Bell",
    "category": "hotel",
    "lat": -6.9131037,
    "lon": 107.6042599,
    "address": "",
    "phone": "",
    "website": "",
    "openingHours": "",
    "description": "",
    "tags": {
      "name": "Arion Swiss Bell",
      "tourism": "hotel"
    }
  },
  {
    "id": 1107877729,
    "type": "wisata",
    "name": "Sate Pak Ginno",
    "category": "restaurant",
    "lat": -6.9167625,
    "lon": 107.6183923,
    "address": "",
    "phone": "",
    "website": "",
    "openingHours": "",
    "description": "",
    "tags": {
      "amenity": "restaurant",
      "name": "Sate Pak Ginno",
      "wheelchair": "yes"
    }
  },
  {
    "id": 1108586477,
    "type": "wisata",
    "name": "Madthari",
    "category": "restaurant",
    "lat": -6.9027613,
    "lon": 107.6104139,
    "address": "Jl. Ranggagading",
    "phone": "",
    "website": "",
    "openingHours": "",
    "description": "",
    "tags": {
      "addr:city": "Bandung, Jawa Barat",
      "addr:street": "Jl. Ranggagading",
      "amenity": "restaurant",
      "name": "Madthari"
    }
  },
  {
    "id": 1108586489,
    "type": "wisata",
    "name": "Sate Maulana Yusuf",
    "category": "restaurant",
    "lat": -6.9009918,
    "lon": 107.6134343,
    "address": "",
    "phone": "",
    "website": "",
    "openingHours": "",
    "description": "",
    "tags": {
      "amenity": "restaurant",
      "name": "Sate Maulana Yusuf"
    }
  },
  {
    "id": 1158819807,
    "type": "wisata",
    "name": "Sate Karjan",
    "category": "restaurant",
    "lat": -6.9126453,
    "lon": 107.5983597,
    "address": "",
    "phone": "",
    "website": "",
    "openingHours": "",
    "description": "",
    "tags": {
      "amenity": "restaurant",
      "name": "Sate Karjan"
    }
  },
  {
    "id": 1158819836,
    "type": "wisata",
    "name": "Camerlang",
    "category": "hotel",
    "lat": -6.9122725,
    "lon": 107.5976731,
    "address": "",
    "phone": "",
    "website": "",
    "openingHours": "",
    "description": "",
    "tags": {
      "name": "Camerlang",
      "tourism": "hotel"
    }
  },
  {
    "id": 1158819872,
    "type": "wisata",
    "name": "Mutiara",
    "category": "hotel",
    "lat": -6.9120915,
    "lon": 107.5984241,
    "address": "",
    "phone": "",
    "website": "",
    "openingHours": "",
    "description": "",
    "tags": {
      "name": "Mutiara",
      "tourism": "hotel"
    }
  },
  {
    "id": 1212690953,
    "type": "wisata",
    "name": "Edelweiss",
    "category": "hotel",
    "lat": -6.8820821,
    "lon": 107.5967445,
    "address": "",
    "phone": "",
    "website": "",
    "openingHours": "",
    "description": "",
    "tags": {
      "internet_access": "no",
      "name": "Edelweiss",
      "tourism": "hotel"
    }
  },
  {
    "id": 1308708818,
    "type": "wisata",
    "name": "Barbar Wing's",
    "category": "restaurant",
    "lat": -6.898751,
    "lon": 107.6030848,
    "address": "jalan boscha",
    "phone": "+6285624478749",
    "website": "https://barbarwings.wordpress.com/",
    "openingHours": "Mo-Su 06:00-23:55",
    "description": "",
    "tags": {
      "addr:city": "Bandung",
      "addr:housenumber": "8",
      "addr:postcode": "40161",
      "addr:street": "jalan boscha",
      "amenity": "restaurant",
      "is_in:country": "Indonesia",
      "is_in:county": "Sukajadi",
      "is_in:region": "Kota Bandung",
      "is_in:state": "Jawa Barat",
      "name": "Barbar Wing's",
      "opening_hours": "Mo-Su 06:00-23:55",
      "phone": "+6285624478749",
      "smoking": "outside",
      "website": "https://barbarwings.wordpress.com/"
    }
  },
  {
    "id": 1341941770,
    "type": "wisata",
    "name": "kedai timbel dago",
    "category": "restaurant",
    "lat": -6.8921526,
    "lon": 107.6129417,
    "address": "",
    "phone": "",
    "website": "",
    "openingHours": "",
    "description": "",
    "tags": {
      "amenity": "restaurant",
      "building": "yes",
      "building:levels": "1",
      "building:roof": "tile",
      "building:structure": "reinforced_masonry",
      "building:use": "commercial",
      "building:walls": "brick",
      "cuisine": "regional",
      "name": "kedai timbel dago",
      "name:en": "Kedai Timbel"
    }
  },
  {
    "id": 1341941792,
    "type": "wisata",
    "name": "dago panyawangan",
    "category": "restaurant",
    "lat": -6.8867215,
    "lon": 107.6167462,
    "address": "Jl. Ir. H.Djuanda",
    "phone": "",
    "website": "",
    "openingHours": "",
    "description": "",
    "tags": {
      "addr:city": "Lb. Siliwangi, Coblong, Kota Bandung, Jawa Barat",
      "addr:housenumber": "127",
      "addr:street": "Jl. Ir. H.Djuanda",
      "amenity": "restaurant",
      "cuisine": "regional",
      "name": "dago panyawangan",
      "name:en": "Panyawangan"
    }
  },
  {
    "id": 1342896154,
    "type": "wisata",
    "name": "Dago Panineungan",
    "category": "restaurant",
    "lat": -6.8872957,
    "lon": 107.6138988,
    "address": "",
    "phone": "",
    "website": "",
    "openingHours": "",
    "description": "",
    "tags": {
      "amenity": "restaurant",
      "name": "Dago Panineungan",
      "name:en": "Panineungan"
    }
  },
  {
    "id": 1342928043,
    "type": "wisata",
    "name": "Hotel Patra Jasa",
    "category": "hotel",
    "lat": -6.8889817,
    "lon": 107.6138659,
    "address": "",
    "phone": "",
    "website": "",
    "openingHours": "",
    "description": "",
    "tags": {
      "name": "Hotel Patra Jasa",
      "tourism": "hotel"
    }
  },
  {
    "id": 1342944385,
    "type": "wisata",
    "name": "Hotel Utari",
    "category": "hotel",
    "lat": -6.90074,
    "lon": 107.6126245,
    "address": "",
    "phone": "",
    "website": "",
    "openingHours": "",
    "description": "",
    "tags": {
      "name": "Hotel Utari",
      "tourism": "hotel"
    }
  },
  {
    "id": 1342944393,
    "type": "wisata",
    "name": "Hotel Karmila",
    "category": "hotel",
    "lat": -6.9028896,
    "lon": 107.6116316,
    "address": "",
    "phone": "",
    "website": "",
    "openingHours": "",
    "description": "",
    "tags": {
      "name": "Hotel Karmila",
      "tourism": "hotel"
    }
  },
  {
    "id": 1342948124,
    "type": "wisata",
    "name": "Hotel Halmahera",
    "category": "hotel",
    "lat": -6.907181,
    "lon": 107.616129,
    "address": "",
    "phone": "",
    "website": "",
    "openingHours": "",
    "description": "",
    "tags": {
      "name": "Hotel Halmahera",
      "tourism": "hotel"
    }
  },
  {
    "id": 1342948128,
    "type": "wisata",
    "name": "Hotel Gandasari",
    "category": "hotel",
    "lat": -6.9078607,
    "lon": 107.6130004,
    "address": "",
    "phone": "",
    "website": "",
    "openingHours": "",
    "description": "",
    "tags": {
      "name": "Hotel Gandasari",
      "tourism": "hotel"
    }
  },
  {
    "id": 1342970049,
    "type": "wisata",
    "name": "Hotel Royal Palace",
    "category": "hotel",
    "lat": -6.9173595,
    "lon": 107.612419,
    "address": "",
    "phone": "",
    "website": "",
    "openingHours": "",
    "description": "",
    "tags": {
      "name": "Hotel Royal Palace",
      "tourism": "hotel"
    }
  },
  {
    "id": 1342970053,
    "type": "wisata",
    "name": "Hotel Royal Merdeka",
    "category": "hotel",
    "lat": -6.9111142,
    "lon": 107.6107756,
    "address": "",
    "phone": "",
    "website": "",
    "openingHours": "",
    "description": "",
    "tags": {
      "name": "Hotel Royal Merdeka",
      "tourism": "hotel"
    }
  },
  {
    "id": 1346794366,
    "type": "wisata",
    "name": "B'gana restoran",
    "category": "restaurant",
    "lat": -6.8972541,
    "lon": 107.6147191,
    "address": "Jl. Dipatiukur",
    "phone": "",
    "website": "",
    "openingHours": "",
    "description": "",
    "tags": {
      "addr:city": "Bandung, Jawa Barat",
      "addr:street": "Jl. Dipatiukur",
      "amenity": "restaurant",
      "name": "B'gana restoran",
      "name:it": "B'gana"
    }
  },
  {
    "id": 1346794387,
    "type": "wisata",
    "name": "Victoria",
    "category": "restaurant",
    "lat": -6.8968401,
    "lon": 107.6152372,
    "address": "Jl. Pager Gunung",
    "phone": "",
    "website": "",
    "openingHours": "",
    "description": "",
    "tags": {
      "addr:city": "Bandung, Jawa Barat",
      "addr:housenumber": "2",
      "addr:street": "Jl. Pager Gunung",
      "amenity": "restaurant",
      "name": "Victoria"
    }
  },
  {
    "id": 1352129471,
    "type": "wisata",
    "name": "Ampera",
    "category": "restaurant",
    "lat": -6.8982722,
    "lon": 107.6369137,
    "address": "",
    "phone": "",
    "website": "",
    "openingHours": "",
    "description": "",
    "tags": {
      "amenity": "restaurant",
      "name": "Ampera"
    }
  },
  {
    "id": 1381753562,
    "type": "wisata",
    "name": "Sheraton Bandung Hotel & Towers",
    "category": "hotel",
    "lat": -6.8743988,
    "lon": 107.6195436,
    "address": "Jalan Ir. H. Juanda",
    "phone": "+62 22 2500303",
    "website": "https://www.marriott.com/hotels/travel/bdosi-sheraton-bandung-hotel-and-towers/",
    "openingHours": "",
    "description": "",
    "tags": {
      "addr:city": "Bandung",
      "addr:housenumber": "390",
      "addr:postcode": "40135",
      "addr:street": "Jalan Ir. H. Juanda",
      "email": "Reservationsbandung@sheraton.com",
      "fax": "+62 22 2500301",
      "name": "Sheraton Bandung Hotel & Towers",
      "phone": "+62 22 2500303",
      "rooms": "156",
      "tourism": "hotel",
      "website": "https://www.marriott.com/hotels/travel/bdosi-sheraton-bandung-hotel-and-towers/"
    }
  },
  {
    "id": 1385420759,
    "type": "wisata",
    "name": "Rumah Makan Padang",
    "category": "restaurant",
    "lat": -6.8837407,
    "lon": 107.6148998,
    "address": "",
    "phone": "",
    "website": "",
    "openingHours": "",
    "description": "",
    "tags": {
      "amenity": "restaurant",
      "name": "Rumah Makan Padang"
    }
  },
  {
    "id": 1385463113,
    "type": "wisata",
    "name": "Wisma Putri Pocut Baren",
    "category": "motel",
    "lat": -6.8852449,
    "lon": 107.6195556,
    "address": "",
    "phone": "",
    "website": "",
    "openingHours": "",
    "description": "",
    "tags": {
      "name": "Wisma Putri Pocut Baren",
      "tourism": "motel"
    }
  },
  {
    "id": 1660110853,
    "type": "wisata",
    "name": "Pizza Hut",
    "category": "restaurant",
    "lat": -6.8831642,
    "lon": 107.6025761,
    "address": "",
    "phone": "",
    "website": "",
    "openingHours": "",
    "description": "",
    "tags": {
      "amenity": "restaurant",
      "cuisine": "pizza",
      "name": "Pizza Hut"
    }
  },
  {
    "id": 1666758044,
    "type": "wisata",
    "name": "RM Padang Sederhana",
    "category": "restaurant",
    "lat": -6.8828983,
    "lon": 107.6005782,
    "address": "",
    "phone": "",
    "website": "",
    "openingHours": "",
    "description": "",
    "tags": {
      "amenity": "restaurant",
      "cuisine": "regional",
      "name": "RM Padang Sederhana"
    }
  },
  {
    "id": 1668245119,
    "type": "wisata",
    "name": "Kantin Garasi",
    "category": "restaurant",
    "lat": -6.8938944,
    "lon": 107.6089033,
    "address": "",
    "phone": "",
    "website": "",
    "openingHours": "",
    "description": "",
    "tags": {
      "amenity": "restaurant",
      "cuisine": "regional",
      "name": "Kantin Garasi"
    }
  },
  {
    "id": 1700556142,
    "type": "wisata",
    "name": "Ayam Cobek Langganan",
    "category": "restaurant",
    "lat": -6.9010333,
    "lon": 107.6016546,
    "address": "",
    "phone": "",
    "website": "",
    "openingHours": "",
    "description": "",
    "tags": {
      "amenity": "restaurant",
      "cuisine": "regional",
      "name": "Ayam Cobek Langganan"
    }
  },
  {
    "id": 1700853213,
    "type": "wisata",
    "name": "Perdana Wisata",
    "category": "hotel",
    "lat": -6.9201876,
    "lon": 107.6014738,
    "address": "",
    "phone": "",
    "website": "www.hotelperdanawisata.com",
    "openingHours": "",
    "description": "",
    "tags": {
      "name": "Perdana Wisata",
      "tourism": "hotel",
      "website": "www.hotelperdanawisata.com"
    }
  },
  {
    "id": 1706574395,
    "type": "wisata",
    "name": "Hotel Agusta",
    "category": "hotel",
    "lat": -6.8976004,
    "lon": 107.6337287,
    "address": "",
    "phone": "",
    "website": "",
    "openingHours": "",
    "description": "",
    "tags": {
      "name": "Hotel Agusta",
      "tourism": "hotel"
    }
  },
  {
    "id": 1706574396,
    "type": "wisata",
    "name": "Hotel Yehezkiel",
    "category": "hotel",
    "lat": -6.8979998,
    "lon": 107.6325164,
    "address": "",
    "phone": "",
    "website": "",
    "openingHours": "",
    "description": "",
    "tags": {
      "name": "Hotel Yehezkiel",
      "tourism": "hotel"
    }
  },
  {
    "id": 1746761936,
    "type": "wisata",
    "name": "Starbucks",
    "category": "cafe",
    "lat": -6.8939696,
    "lon": 107.6055017,
    "address": "Jalan Cihampelas",
    "phone": "+62 22 2061102",
    "website": "",
    "openingHours": "",
    "description": "",
    "tags": {
      "addr:postcode": "40131",
      "addr:street": "Jalan Cihampelas",
      "amenity": "cafe",
      "brand": "Starbucks",
      "brand:wikidata": "Q37158",
      "brand:wikipedia": "en:Starbucks",
      "cuisine": "coffee_shop",
      "email": "feedback@starbucks.co.id",
      "internet_access": "wlan",
      "name": "Starbucks",
      "official_name": "Starbucks Coffee",
      "phone": "+62 22 2061102",
      "takeaway": "yes"
    }
  },
  {
    "id": 1746761937,
    "type": "wisata",
    "name": "Bebek Crispy",
    "category": "restaurant",
    "lat": -6.8934997,
    "lon": 107.6050826,
    "address": "",
    "phone": "",
    "website": "",
    "openingHours": "",
    "description": "",
    "tags": {
      "amenity": "restaurant",
      "cuisine": "japanese",
      "name": "Bebek Crispy",
      "name:en": "Shin Men"
    }
  },
  {
    "id": 1785955514,
    "type": "wisata",
    "name": "Hotel California",
    "category": "motel",
    "lat": -6.9037861,
    "lon": 107.6053253,
    "address": "",
    "phone": "",
    "website": "",
    "openingHours": "",
    "description": "",
    "tags": {
      "name": "Hotel California",
      "tourism": "motel"
    }
  },
  {
    "id": 1788564509,
    "type": "wisata",
    "name": "Otten Inn",
    "category": "motel",
    "lat": -6.9013335,
    "lon": 107.5990484,
    "address": "",
    "phone": "",
    "website": "",
    "openingHours": "",
    "description": "",
    "tags": {
      "name": "Otten Inn",
      "tourism": "motel"
    }
  },
  {
    "id": 1788564513,
    "type": "wisata",
    "name": "Otten Ville Boutique Hotel",
    "category": "hotel",
    "lat": -6.9028932,
    "lon": 107.6007213,
    "address": "",
    "phone": "",
    "website": "",
    "openingHours": "",
    "description": "",
    "tags": {
      "name": "Otten Ville Boutique Hotel",
      "tourism": "hotel"
    }
  },
  {
    "id": 1801234292,
    "type": "wisata",
    "name": "Bumi Bhandawa",
    "category": "hotel",
    "lat": -6.8840321,
    "lon": 107.6256947,
    "address": "",
    "phone": "",
    "website": "",
    "openingHours": "",
    "description": "",
    "tags": {
      "name": "Bumi Bhandawa",
      "tourism": "hotel"
    }
  },
  {
    "id": 1924435640,
    "type": "wisata",
    "name": "Sensa",
    "category": "hotel",
    "lat": -6.8948421,
    "lon": 107.6049865,
    "address": "",
    "phone": "",
    "website": "",
    "openingHours": "",
    "description": "",
    "tags": {
      "name": "Sensa",
      "tourism": "hotel"
    }
  },
  {
    "id": 1924435646,
    "type": "wisata",
    "name": "BMK",
    "category": "restaurant",
    "lat": -6.8939367,
    "lon": 107.6050187,
    "address": "",
    "phone": "",
    "website": "",
    "openingHours": "",
    "description": "",
    "tags": {
      "amenity": "restaurant",
      "cuisine": "regional",
      "name": "BMK"
    }
  },
  {
    "id": 1924439599,
    "type": "wisata",
    "name": "Aston Tropicana",
    "category": "hotel",
    "lat": -6.8964744,
    "lon": 107.6036507,
    "address": "",
    "phone": "",
    "website": "",
    "openingHours": "",
    "description": "",
    "tags": {
      "name": "Aston Tropicana",
      "stars": "4",
      "tourism": "hotel"
    }
  },
  {
    "id": 1924439614,
    "type": "wisata",
    "name": "Fave",
    "category": "hotel",
    "lat": -6.896059,
    "lon": 107.6036829,
    "address": "",
    "phone": "",
    "website": "",
    "openingHours": "",
    "description": "",
    "tags": {
      "name": "Fave",
      "tourism": "hotel"
    }
  },
  {
    "id": 1924450381,
    "type": "wisata",
    "name": "Mama’s Greman Restaurant",
    "category": "restaurant",
    "lat": -6.8959285,
    "lon": 107.6031089,
    "address": "JL Prof. Eyckman",
    "phone": "",
    "website": "",
    "openingHours": "",
    "description": "",
    "tags": {
      "addr:city": "Pasteur, Sukajadi, Kota Bandung, Jawa Barat",
      "addr:housenumber": "3",
      "addr:street": "JL Prof. Eyckman",
      "amenity": "restaurant",
      "cuisine": "german",
      "name": "Mama’s Greman Restaurant"
    }
  },
  {
    "id": 1956969150,
    "type": "wisata",
    "name": "Museum Siliwangi",
    "category": "museum",
    "lat": -6.9171828,
    "lon": 107.6110914,
    "address": "Jalan Lembong",
    "phone": "",
    "website": "",
    "openingHours": "Mo-Th 08:00-13:00; Fr 08:00-10:00; Sa 08:00-12:00",
    "description": "Army museum",
    "tags": {
      "addr:housenumber": "38",
      "addr:street": "Jalan Lembong",
      "description": "Army museum",
      "fee": "no",
      "name": "Museum Siliwangi",
      "opening_hours": "Mo-Th 08:00-13:00; Fr 08:00-10:00; Sa 08:00-12:00",
      "tourism": "museum"
    }
  },
  {
    "id": 1957918316,
    "type": "wisata",
    "name": "Tirtalega",
    "category": "swimming_pool",
    "lat": -6.9357627,
    "lon": 107.6056659,
    "address": "",
    "phone": "",
    "website": "",
    "openingHours": "",
    "description": "",
    "tags": {
      "leisure": "swimming_pool",
      "name": "Tirtalega",
      "sport": "swimming"
    }
  },
  {
    "id": 1960302561,
    "type": "wisata",
    "name": "Tennis Lap Sheraton Hotel's",
    "category": "pitch",
    "lat": -6.8750975,
    "lon": 107.6196433,
    "address": "",
    "phone": "",
    "website": "",
    "openingHours": "",
    "description": "",
    "tags": {
      "leisure": "pitch",
      "name": "Tennis Lap Sheraton Hotel's",
      "sport": "tennis"
    }
  },
  {
    "id": 1969331832,
    "type": "wisata",
    "name": "Bumi Saunggaling",
    "category": "hotel",
    "lat": -6.9007662,
    "lon": 107.6093277,
    "address": "",
    "phone": "",
    "website": "",
    "openingHours": "",
    "description": "",
    "tags": {
      "name": "Bumi Saunggaling",
      "tourism": "hotel"
    }
  },
  {
    "id": 1969331842,
    "type": "wisata",
    "name": "Pizza Hut",
    "category": "restaurant",
    "lat": -6.9009712,
    "lon": 107.6125356,
    "address": "",
    "phone": "",
    "website": "",
    "openingHours": "",
    "description": "",
    "tags": {
      "amenity": "restaurant",
      "brand": "Pizza Hut",
      "brand:wikidata": "Q191615",
      "cuisine": "pizza",
      "name": "Pizza Hut"
    }
  },
  {
    "id": 2025175529,
    "type": "wisata",
    "name": "Wisata Tanpa Nama",
    "category": "swimming_pool",
    "lat": -6.9438665,
    "lon": 107.6244719,
    "address": "",
    "phone": "",
    "website": "",
    "openingHours": "",
    "description": "",
    "tags": {
      "leisure": "swimming_pool",
      "sport": "swimming"
    }
  },
  {
    "id": 2429254335,
    "type": "wisata",
    "name": "Atmosphere Resort Cafe",
    "category": "restaurant",
    "lat": -6.9267334,
    "lon": 107.6132906,
    "address": "Jalan Lengkong Besar",
    "phone": "",
    "website": "",
    "openingHours": "",
    "description": "",
    "tags": {
      "addr:city": "Bandung",
      "addr:housenumber": "#97",
      "addr:postcode": "40261",
      "addr:street": "Jalan Lengkong Besar",
      "amenity": "restaurant",
      "name": "Atmosphere Resort Cafe",
      "name:en": "Atmosphere"
    }
  },
  {
    "id": 2429258324,
    "type": "wisata",
    "name": "Baso Malang Enggal",
    "category": "restaurant",
    "lat": -6.924869,
    "lon": 107.6196988,
    "address": "",
    "phone": "",
    "website": "",
    "openingHours": "",
    "description": "",
    "tags": {
      "amenity": "restaurant",
      "name": "Baso Malang Enggal"
    }
  },
  {
    "id": 2429262280,
    "type": "wisata",
    "name": "Pempek Pak Raden",
    "category": "restaurant",
    "lat": -6.8879183,
    "lon": 107.615515,
    "address": "Jalan Dipatiukur",
    "phone": "",
    "website": "",
    "openingHours": "",
    "description": "",
    "tags": {
      "addr:housenumber": "94",
      "addr:street": "Jalan Dipatiukur",
      "amenity": "restaurant",
      "name": "Pempek Pak Raden"
    }
  },
  {
    "id": 2490686956,
    "type": "wisata",
    "name": "Baso Semar",
    "category": "restaurant",
    "lat": -6.9198235,
    "lon": 107.6170063,
    "address": "",
    "phone": "",
    "website": "",
    "openingHours": "",
    "description": "",
    "tags": {
      "amenity": "restaurant",
      "name": "Baso Semar"
    }
  },
  {
    "id": 2490687089,
    "type": "wisata",
    "name": "Papandayan",
    "category": "hotel",
    "lat": -6.9231465,
    "lon": 107.6237011,
    "address": "",
    "phone": "",
    "website": "",
    "openingHours": "",
    "description": "",
    "tags": {
      "name": "Papandayan",
      "tourism": "hotel"
    }
  },
  {
    "id": 2491840024,
    "type": "wisata",
    "name": "Warung Steak and Shake",
    "category": "restaurant",
    "lat": -6.9230613,
    "lon": 107.6131868,
    "address": "",
    "phone": "",
    "website": "",
    "openingHours": "",
    "description": "",
    "tags": {
      "amenity": "restaurant",
      "name": "Warung Steak and Shake"
    }
  },
  {
    "id": 2491855814,
    "type": "wisata",
    "name": "Bloemen",
    "category": "restaurant",
    "lat": -6.8880195,
    "lon": 107.6016212,
    "address": "",
    "phone": "",
    "website": "",
    "openingHours": "",
    "description": "",
    "tags": {
      "amenity": "restaurant",
      "name": "Bloemen"
    }
  },
  {
    "id": 2492054087,
    "type": "wisata",
    "name": "Gokana",
    "category": "restaurant",
    "lat": -6.8936141,
    "lon": 107.6057343,
    "address": "",
    "phone": "",
    "website": "",
    "openingHours": "",
    "description": "",
    "tags": {
      "amenity": "restaurant",
      "cuisine": "japanese",
      "name": "Gokana"
    }
  },
  {
    "id": 2494627703,
    "type": "wisata",
    "name": "Parakan Wangi",
    "category": "hotel",
    "lat": -6.9498041,
    "lon": 107.6280034,
    "address": "",
    "phone": "",
    "website": "",
    "openingHours": "",
    "description": "",
    "tags": {
      "name": "Parakan Wangi",
      "tourism": "hotel"
    }
  },
  {
    "id": 2494655270,
    "type": "wisata",
    "name": "The Summit Siliwangi",
    "category": "hotel",
    "lat": -6.9077241,
    "lon": 107.6129293,
    "address": "",
    "phone": "",
    "website": "",
    "openingHours": "",
    "description": "",
    "tags": {
      "name": "The Summit Siliwangi",
      "tourism": "hotel"
    }
  },
  {
    "id": 2496127734,
    "type": "wisata",
    "name": "Gudeg Banda",
    "category": "restaurant",
    "lat": -6.9067229,
    "lon": 107.6208472,
    "address": "",
    "phone": "",
    "website": "",
    "openingHours": "",
    "description": "",
    "tags": {
      "amenity": "restaurant",
      "name": "Gudeg Banda"
    }
  },
  {
    "id": 2496127739,
    "type": "wisata",
    "name": "Soes Merdeka",
    "category": "restaurant",
    "lat": -6.9069786,
    "lon": 107.6208901,
    "address": "",
    "phone": "",
    "website": "",
    "openingHours": "",
    "description": "",
    "tags": {
      "amenity": "restaurant",
      "name": "Soes Merdeka"
    }
  },
  {
    "id": 2496127740,
    "type": "wisata",
    "name": "Bebek van Java",
    "category": "restaurant",
    "lat": -6.907068,
    "lon": 107.6200544,
    "address": "",
    "phone": "",
    "website": "",
    "openingHours": "",
    "description": "",
    "tags": {
      "amenity": "restaurant",
      "name": "Bebek van Java"
    }
  },
  {
    "id": 2496127741,
    "type": "wisata",
    "name": "d' Palm",
    "category": "restaurant",
    "lat": -6.9071277,
    "lon": 107.6196671,
    "address": "Jalan Lombok",
    "phone": "",
    "website": "",
    "openingHours": "",
    "description": "",
    "tags": {
      "addr:city": "Bandung",
      "addr:housenumber": "45",
      "addr:street": "Jalan Lombok",
      "amenity": "restaurant",
      "name": "d' Palm"
    }
  },
  {
    "id": 2496127742,
    "type": "wisata",
    "name": "Warung Steak and Shake",
    "category": "restaurant",
    "lat": -6.9104934,
    "lon": 107.6184011,
    "address": "",
    "phone": "",
    "website": "",
    "openingHours": "",
    "description": "",
    "tags": {
      "amenity": "restaurant",
      "name": "Warung Steak and Shake"
    }
  },
  {
    "id": 2497173677,
    "type": "wisata",
    "name": "Mujigae",
    "category": "restaurant",
    "lat": -6.8937286,
    "lon": 107.6050758,
    "address": "",
    "phone": "",
    "website": "",
    "openingHours": "",
    "description": "",
    "tags": {
      "amenity": "restaurant",
      "cuisine": "korean",
      "name": "Mujigae"
    }
  },
  {
    "id": 2497173678,
    "type": "wisata",
    "name": "Gigglebox",
    "category": "restaurant",
    "lat": -6.8931108,
    "lon": 107.6050973,
    "address": "",
    "phone": "",
    "website": "",
    "openingHours": "",
    "description": "",
    "tags": {
      "amenity": "restaurant",
      "level": "2",
      "name": "Gigglebox"
    }
  },
  {
    "id": 2497173763,
    "type": "wisata",
    "name": "Pizza Hut Ristorante",
    "category": "restaurant",
    "lat": -6.9110685,
    "lon": 107.6267052,
    "address": "",
    "phone": "",
    "website": "",
    "openingHours": "Mo-Su 10:00-22:00",
    "description": "",
    "tags": {
      "amenity": "restaurant",
      "brand": "Pizza Hut",
      "brand:wikidata": "Q191615",
      "cuisine": "pizza",
      "dish": "pizza",
      "name": "Pizza Hut Ristorante",
      "opening_hours": "Mo-Su 10:00-22:00"
    }
  },
  {
    "id": 2725732963,
    "type": "wisata",
    "name": "Warung Nasi Kang EWOK",
    "category": "restaurant",
    "lat": -6.9052749,
    "lon": 107.5961955,
    "address": "Astina",
    "phone": "+62 22 6038 783, +62 22 9203 5359",
    "website": "",
    "openingHours": "",
    "description": "",
    "tags": {
      "addr:city": "Bandung",
      "addr:housenumber": "16",
      "addr:street": "Astina",
      "amenity": "restaurant",
      "capacity": "50",
      "cuisine": "sundanese",
      "name": "Warung Nasi Kang EWOK",
      "phone": "+62 22 6038 783, +62 22 9203 5359"
    }
  },
  {
    "id": 2828409793,
    "type": "wisata",
    "name": "Rumah Makan Marannu",
    "category": "restaurant",
    "lat": -6.9112066,
    "lon": 107.6273321,
    "address": "",
    "phone": "",
    "website": "",
    "openingHours": "",
    "description": "",
    "tags": {
      "amenity": "restaurant",
      "cuisine": "makassar",
      "name": "Rumah Makan Marannu",
      "name:en": "Marannu"
    }
  },
  {
    "id": 3001806573,
    "type": "wisata",
    "name": "Chicken Farms",
    "category": "restaurant",
    "lat": -6.9196306,
    "lon": 107.5935729,
    "address": "Jendral Sudirman",
    "phone": "",
    "website": "",
    "openingHours": "09:00-21:00",
    "description": "",
    "tags": {
      "addr:city": "Bandung",
      "addr:housenumber": "299",
      "addr:postcode": "40241",
      "addr:street": "Jendral Sudirman",
      "amenity": "restaurant",
      "capacity": "125",
      "check_date:opening_hours": "2023-07-23",
      "cuisine": "chicken",
      "name": "Chicken Farms",
      "opening_hours": "09:00-21:00",
      "smoking": "separated"
    }
  },
  {
    "id": 3017729954,
    "type": "wisata",
    "name": "Kantin Salman",
    "category": "restaurant",
    "lat": -6.8942667,
    "lon": 107.610979,
    "address": "",
    "phone": "",
    "website": "",
    "openingHours": "",
    "description": "",
    "tags": {
      "amenity": "restaurant",
      "cuisine": "regional",
      "name": "Kantin Salman"
    }
  },
  {
    "id": 3017729959,
    "type": "wisata",
    "name": "Kantin GKU",
    "category": "restaurant",
    "lat": -6.8903481,
    "lon": 107.6087349,
    "address": "",
    "phone": "",
    "website": "",
    "openingHours": "",
    "description": "",
    "tags": {
      "amenity": "restaurant",
      "name": "Kantin GKU"
    }
  },
  {
    "id": 3017729960,
    "type": "wisata",
    "name": "Kantin Borju",
    "category": "restaurant",
    "lat": -6.8905771,
    "lon": 107.6093626,
    "address": "",
    "phone": "",
    "website": "",
    "openingHours": "",
    "description": "",
    "tags": {
      "amenity": "restaurant",
      "name": "Kantin Borju"
    }
  },
  {
    "id": 3017729961,
    "type": "wisata",
    "name": "Kantin Barak",
    "category": "restaurant",
    "lat": -6.8917009,
    "lon": 107.6116156,
    "address": "",
    "phone": "",
    "website": "",
    "openingHours": "",
    "description": "",
    "tags": {
      "amenity": "restaurant",
      "name": "Kantin Barak"
    }
  },
  {
    "id": 3017729963,
    "type": "wisata",
    "name": "KBL",
    "category": "restaurant",
    "lat": -6.8883084,
    "lon": 107.6088476,
    "address": "",
    "phone": "",
    "website": "",
    "openingHours": "",
    "description": "",
    "tags": {
      "amenity": "restaurant",
      "name": "KBL"
    }
  },
  {
    "id": 3064180843,
    "type": "wisata",
    "name": "Wisata Tanpa Nama",
    "category": "restaurant",
    "lat": -6.8792672,
    "lon": 107.6127822,
    "address": "",
    "phone": "",
    "website": "",
    "openingHours": "",
    "description": "",
    "tags": {
      "amenity": "restaurant"
    }
  },
  {
    "id": 3064183062,
    "type": "wisata",
    "name": "Wisata Tanpa Nama",
    "category": "restaurant",
    "lat": -6.8898807,
    "lon": 107.6172141,
    "address": "",
    "phone": "",
    "website": "",
    "openingHours": "",
    "description": "",
    "tags": {
      "amenity": "restaurant"
    }
  },
  {
    "id": 3105373529,
    "type": "wisata",
    "name": "Meize Hotel - Jl. Sumbawa",
    "category": "hotel",
    "lat": -6.9148648,
    "lon": 107.6178088,
    "address": "Sumbawa",
    "phone": "+62 22 426 3888",
    "website": "https://www.meizehotel.com/",
    "openingHours": "",
    "description": "",
    "tags": {
      "addr:city": "Bandung",
      "addr:housenumber": "7",
      "addr:postcode": "40113",
      "addr:street": "Sumbawa",
      "name": "Meize Hotel - Jl. Sumbawa",
      "phone": "+62 22 426 3888",
      "tourism": "hotel",
      "website": "https://www.meizehotel.com/"
    }
  },
  {
    "id": 3148868098,
    "type": "wisata",
    "name": "Jackstar",
    "category": "restaurant",
    "lat": -6.9256802,
    "lon": 107.6276337,
    "address": "Jalan Pelajar Pejuang 45",
    "phone": "",
    "website": "",
    "openingHours": "",
    "description": "",
    "tags": {
      "addr:city": "Bandung",
      "addr:housenumber": "45",
      "addr:street": "Jalan Pelajar Pejuang 45",
      "amenity": "restaurant",
      "cuisine": "burger",
      "name": "Jackstar"
    }
  },
  {
    "id": 3155746370,
    "type": "wisata",
    "name": "Bandung Suki Restaurant",
    "category": "restaurant",
    "lat": -6.9169297,
    "lon": 107.6093123,
    "address": "Braga",
    "phone": "+62 22 420-7452",
    "website": "",
    "openingHours": "Mon-Sat: 10 AM - 10 PM, Sun & Holiday: 08 AM - 10 PM",
    "description": "",
    "tags": {
      "addr:city": "Bandung",
      "addr:housenumber": "70",
      "addr:postcode": "40111",
      "addr:street": "Braga",
      "amenity": "restaurant",
      "cuisine": "asian",
      "name": "Bandung Suki Restaurant",
      "name:en": "Bandung Suki",
      "opening_hours": "Mon-Sat: 10 AM - 10 PM, Sun & Holiday: 08 AM - 10 PM",
      "phone": "+62 22 420-7452",
      "smoking": "separated"
    }
  },
  {
    "id": 3269202627,
    "type": "wisata",
    "name": "Park Hotel",
    "category": "hotel",
    "lat": -6.899096,
    "lon": 107.6415674,
    "address": "",
    "phone": "",
    "website": "",
    "openingHours": "",
    "description": "",
    "tags": {
      "name": "Park Hotel",
      "tourism": "hotel"
    }
  },
  {
    "id": 3348067546,
    "type": "wisata",
    "name": "Rumah Bersejarah Inggit Garnasih",
    "category": "museum",
    "lat": -6.9314629,
    "lon": 107.6024885,
    "address": "Jalan Inggit Ganarsih",
    "phone": "",
    "website": "",
    "openingHours": "Mo-Su 07:00-16:00",
    "description": "Museum about Sukarno's ex-wife",
    "tags": {
      "addr:housenumber": "8",
      "addr:street": "Jalan Inggit Ganarsih",
      "description": "Museum about Sukarno's ex-wife",
      "name": "Rumah Bersejarah Inggit Garnasih",
      "opening_hours": "Mo-Su 07:00-16:00",
      "tourism": "museum"
    }
  },
  {
    "id": 3376282081,
    "type": "wisata",
    "name": "Sofyan Inn Specia",
    "category": "hotel",
    "lat": -6.93168,
    "lon": 107.6178928,
    "address": "Jalan Buah Batu",
    "phone": "",
    "website": "",
    "openingHours": "",
    "description": "",
    "tags": {
      "addr:city": "Bandung",
      "addr:housenumber": "31",
      "addr:postcode": "40262",
      "addr:street": "Jalan Buah Batu",
      "name": "Sofyan Inn Specia",
      "tourism": "hotel"
    }
  },
  {
    "id": 3376756789,
    "type": "wisata",
    "name": "Wisma Tubagus",
    "category": "guest_house",
    "lat": -6.8853338,
    "lon": 107.6163121,
    "address": "",
    "phone": "",
    "website": "",
    "openingHours": "",
    "description": "",
    "tags": {
      "name": "Wisma Tubagus",
      "tourism": "guest_house"
    }
  },
  {
    "id": 3386314313,
    "type": "wisata",
    "name": "Angkringan Losari",
    "category": "restaurant",
    "lat": -6.9188476,
    "lon": 107.6067686,
    "address": "",
    "phone": "",
    "website": "",
    "openingHours": "",
    "description": "",
    "tags": {
      "amenity": "restaurant",
      "bus": "yes",
      "name": "Angkringan Losari",
      "ref": "Banceuy/ABC"
    }
  },
  {
    "id": 3421238301,
    "type": "wisata",
    "name": "Habenagen Coffeeshop",
    "category": "cafe",
    "lat": -6.9021325,
    "lon": 107.6040636,
    "address": "Cihampelas",
    "phone": "",
    "website": "",
    "openingHours": "",
    "description": "",
    "tags": {
      "addr:city": "Bandung",
      "addr:street": "Cihampelas",
      "amenity": "cafe",
      "cuisine": "coffee_shop",
      "name": "Habenagen Coffeeshop",
      "name:en": "Habenhagen"
    }
  },
  {
    "id": 3424716052,
    "type": "wisata",
    "name": "Den Haag Klappertaart",
    "category": "restaurant",
    "lat": -6.9065307,
    "lon": 107.6146911,
    "address": "",
    "phone": "",
    "website": "",
    "openingHours": "",
    "description": "",
    "tags": {
      "amenity": "restaurant",
      "name": "Den Haag Klappertaart"
    }
  },
  {
    "id": 3424716226,
    "type": "wisata",
    "name": "Vio Hotel",
    "category": "hotel",
    "lat": -6.9008276,
    "lon": 107.5980564,
    "address": "",
    "phone": "",
    "website": "",
    "openingHours": "",
    "description": "",
    "tags": {
      "name": "Vio Hotel",
      "tourism": "hotel"
    }
  },
  {
    "id": 3424716400,
    "type": "wisata",
    "name": "Sederhana",
    "category": "restaurant",
    "lat": -6.9115054,
    "lon": 107.6272212,
    "address": "Jalan Laks. R.E. Martadinata",
    "phone": "",
    "website": "",
    "openingHours": "",
    "description": "",
    "tags": {
      "addr:city": "Bandung",
      "addr:housenumber": "128",
      "addr:street": "Jalan Laks. R.E. Martadinata",
      "amenity": "restaurant",
      "name": "Sederhana"
    }
  },
  {
    "id": 3428137194,
    "type": "wisata",
    "name": "Bumbu Desa",
    "category": "restaurant",
    "lat": -6.9167335,
    "lon": 107.6307076,
    "address": "",
    "phone": "",
    "website": "",
    "openingHours": "",
    "description": "",
    "tags": {
      "amenity": "restaurant",
      "name": "Bumbu Desa"
    }
  },
  {
    "id": 3428599973,
    "type": "wisata",
    "name": "Tebu Hotel",
    "category": "hotel",
    "lat": -6.9060828,
    "lon": 107.6202185,
    "address": "",
    "phone": "",
    "website": "",
    "openingHours": "",
    "description": "",
    "tags": {
      "name": "Tebu Hotel",
      "tourism": "hotel"
    }
  },
  {
    "id": 3429603279,
    "type": "wisata",
    "name": "Ayam Bakar Wong Song",
    "category": "restaurant",
    "lat": -6.9136255,
    "lon": 107.6289496,
    "address": "",
    "phone": "",
    "website": "",
    "openingHours": "",
    "description": "",
    "tags": {
      "amenity": "restaurant",
      "name": "Ayam Bakar Wong Song"
    }
  },
  {
    "id": 3429603280,
    "type": "wisata",
    "name": "Hotel Riau",
    "category": "hotel",
    "lat": -6.9115915,
    "lon": 107.6277629,
    "address": "Jl. L. L. RE.Martadinata , Cihapit",
    "phone": "",
    "website": "",
    "openingHours": "",
    "description": "",
    "tags": {
      "addr:city": "Bandung",
      "addr:housenumber": "191",
      "addr:street": "Jl. L. L. RE.Martadinata , Cihapit",
      "name": "Hotel Riau",
      "tourism": "hotel"
    }
  },
  {
    "id": 3429603356,
    "type": "wisata",
    "name": "The Oldway Cafe",
    "category": "cafe",
    "lat": -6.9070431,
    "lon": 107.6230593,
    "address": "",
    "phone": "",
    "website": "",
    "openingHours": "",
    "description": "",
    "tags": {
      "amenity": "cafe",
      "name": "The Oldway Cafe"
    }
  },
  {
    "id": 3429872583,
    "type": "wisata",
    "name": "Cizz",
    "category": "restaurant",
    "lat": -6.9161351,
    "lon": 107.6304057,
    "address": "",
    "phone": "",
    "website": "",
    "openingHours": "",
    "description": "",
    "tags": {
      "amenity": "restaurant",
      "name": "Cizz"
    }
  },
  {
    "id": 3431431053,
    "type": "wisata",
    "name": "Kopi Anjis",
    "category": "restaurant",
    "lat": -6.9287447,
    "lon": 107.6222637,
    "address": "",
    "phone": "",
    "website": "",
    "openingHours": "",
    "description": "",
    "tags": {
      "amenity": "restaurant",
      "name": "Kopi Anjis"
    }
  },
  {
    "id": 3436699526,
    "type": "wisata",
    "name": "Pullman",
    "category": "hotel",
    "lat": -6.9003506,
    "lon": 107.6175514,
    "address": "",
    "phone": "",
    "website": "",
    "openingHours": "",
    "description": "",
    "tags": {
      "brand": "Pullman",
      "brand:wikidata": "Q3410757",
      "name": "Pullman",
      "stars": "5",
      "tourism": "hotel"
    }
  },
  {
    "id": 3506203980,
    "type": "wisata",
    "name": "Grand Pasundan Convention Hotel",
    "category": "hotel",
    "lat": -6.9367875,
    "lon": 107.5934789,
    "address": "PETA",
    "phone": "",
    "website": "",
    "openingHours": "",
    "description": "",
    "tags": {
      "addr:city": "Bandung",
      "addr:street": "PETA",
      "name": "Grand Pasundan Convention Hotel",
      "smoking": "outside",
      "tourism": "hotel"
    }
  },
  {
    "id": 3733193725,
    "type": "wisata",
    "name": "patradissa hotel",
    "category": "hotel",
    "lat": -6.911422,
    "lon": 107.601762,
    "address": "",
    "phone": "",
    "website": "",
    "openingHours": "",
    "description": "",
    "tags": {
      "atm": "no",
      "internet_access": "wlan",
      "name": "patradissa hotel",
      "source": "survey",
      "tourism": "hotel"
    }
  },
  {
    "id": 3754824465,
    "type": "wisata",
    "name": "Kopi Aroma",
    "category": "attraction",
    "lat": -6.9174718,
    "lon": 107.6062699,
    "address": "",
    "phone": "",
    "website": "",
    "openingHours": "",
    "description": "",
    "tags": {
      "name": "Kopi Aroma",
      "tourism": "attraction"
    }
  },
  {
    "id": 3757788976,
    "type": "wisata",
    "name": "Tatakan",
    "category": "restaurant",
    "lat": -6.8838733,
    "lon": 107.6150099,
    "address": "",
    "phone": "",
    "website": "",
    "openingHours": "",
    "description": "",
    "tags": {
      "amenity": "restaurant",
      "name": "Tatakan"
    }
  },
  {
    "id": 3769586144,
    "type": "wisata",
    "name": "PT Rasa",
    "category": "restaurant",
    "lat": -6.9190813,
    "lon": 107.6121627,
    "address": "",
    "phone": "",
    "website": "",
    "openingHours": "",
    "description": "",
    "tags": {
      "amenity": "restaurant",
      "name": "PT Rasa"
    }
  },
  {
    "id": 3797907540,
    "type": "wisata",
    "name": "Sop Kaki",
    "category": "restaurant",
    "lat": -6.8986257,
    "lon": 107.613195,
    "address": "Jalan Ir. H. Juanda",
    "phone": "",
    "website": "",
    "openingHours": "18:00-24:00",
    "description": "",
    "tags": {
      "addr:city": "Bandung, Jawa Barat",
      "addr:postcode": "40132",
      "addr:street": "Jalan Ir. H. Juanda",
      "amenity": "restaurant",
      "capacity": "20",
      "cuisine": "regional",
      "name": "Sop Kaki",
      "opening_hours": "18:00-24:00",
      "takeaway": "yes"
    }
  },
  {
    "id": 3797908063,
    "type": "wisata",
    "name": "Lontong Kari Gempol",
    "category": "restaurant",
    "lat": -6.9031083,
    "lon": 107.6154995,
    "address": "",
    "phone": "",
    "website": "",
    "openingHours": "06:00-10:00",
    "description": "",
    "tags": {
      "air_conditioning": "no",
      "amenity": "restaurant",
      "capacity": "5",
      "cuisine": "regional",
      "diet:halal": "yes",
      "name": "Lontong Kari Gempol",
      "opening_hours": "06:00-10:00",
      "takeaway": "yes"
    }
  },
  {
    "id": 3797908082,
    "type": "wisata",
    "name": "Bakso Arief",
    "category": "restaurant",
    "lat": -6.9045738,
    "lon": 107.6140864,
    "address": "",
    "phone": "",
    "website": "",
    "openingHours": "",
    "description": "",
    "tags": {
      "amenity": "restaurant",
      "capacity": "20",
      "cuisine": "regional",
      "name": "Bakso Arief",
      "takeaway": "yes"
    }
  },
  {
    "id": 3797908083,
    "type": "wisata",
    "name": "Dianti Daily",
    "category": "restaurant",
    "lat": -6.9045936,
    "lon": 107.6141887,
    "address": "",
    "phone": "",
    "website": "",
    "openingHours": "",
    "description": "",
    "tags": {
      "amenity": "restaurant",
      "cuisine": "regional",
      "name": "Dianti Daily"
    }
  },
  {
    "id": 3797908084,
    "type": "wisata",
    "name": "Soo Moo Hun",
    "category": "restaurant",
    "lat": -6.9046556,
    "lon": 107.6141388,
    "address": "",
    "phone": "",
    "website": "",
    "openingHours": "",
    "description": "",
    "tags": {
      "amenity": "restaurant",
      "cuisine": "korean",
      "name": "Soo Moo Hun"
    }
  },
  {
    "id": 3797908134,
    "type": "wisata",
    "name": "Kabut Salju",
    "category": "cafe",
    "lat": -6.9183143,
    "lon": 107.6143286,
    "address": "",
    "phone": "",
    "website": "",
    "openingHours": "",
    "description": "",
    "tags": {
      "amenity": "cafe",
      "cuisine": "ice_cream",
      "name": "Kabut Salju"
    }
  },
  {
    "id": 3797908148,
    "type": "wisata",
    "name": "Ayam Goreng Nikmat",
    "category": "restaurant",
    "lat": -6.919286,
    "lon": 107.6169434,
    "address": "",
    "phone": "",
    "website": "",
    "openingHours": "",
    "description": "",
    "tags": {
      "amenity": "restaurant",
      "cuisine": "chicken",
      "name": "Ayam Goreng Nikmat",
      "takeaway": "yes"
    }
  },
  {
    "id": 3802205384,
    "type": "wisata",
    "name": "Bebek Kaleyo",
    "category": "restaurant",
    "lat": -6.9007525,
    "lon": 107.5970316,
    "address": "Jalan Pasir Kaliki",
    "phone": "",
    "website": "https://www.kaleyo.com",
    "openingHours": "Mo-Sa 11:00-23:00",
    "description": "",
    "tags": {
      "addr:city": "Bandung, Jawa Barat",
      "addr:housenumber": "185-189",
      "addr:street": "Jalan Pasir Kaliki",
      "amenity": "restaurant",
      "check_date:opening_hours": "2022-08-09",
      "name": "Bebek Kaleyo",
      "opening_hours": "Mo-Sa 11:00-23:00",
      "website": "https://www.kaleyo.com"
    }
  },
  {
    "id": 3803628057,
    "type": "wisata",
    "name": "Ambun Pagi",
    "category": "restaurant",
    "lat": -6.8964177,
    "lon": 107.595882,
    "address": "",
    "phone": "",
    "website": "",
    "openingHours": "",
    "description": "",
    "tags": {
      "amenity": "restaurant",
      "cuisine": "padang",
      "name": "Ambun Pagi"
    }
  },
  {
    "id": 3806721273,
    "type": "wisata",
    "name": "Aem Pek 322 Dago",
    "category": "restaurant",
    "lat": -6.8782448,
    "lon": 107.6169053,
    "address": "",
    "phone": "",
    "website": "",
    "openingHours": "",
    "description": "",
    "tags": {
      "amenity": "restaurant",
      "name": "Aem Pek 322 Dago",
      "name:en": "Aem Pek"
    }
  },
  {
    "id": 3806721278,
    "type": "wisata",
    "name": "Baso Malang 336",
    "category": "restaurant",
    "lat": -6.878149,
    "lon": 107.6169412,
    "address": "",
    "phone": "",
    "website": "",
    "openingHours": "",
    "description": "",
    "tags": {
      "amenity": "restaurant",
      "name": "Baso Malang 336"
    }
  },
  {
    "id": 3806721279,
    "type": "wisata",
    "name": "Baso dan Batagor H.Dartowahab",
    "category": "restaurant",
    "lat": -6.8846311,
    "lon": 107.6140131,
    "address": "",
    "phone": "",
    "website": "",
    "openingHours": "",
    "description": "",
    "tags": {
      "amenity": "restaurant",
      "name": "Baso dan Batagor H.Dartowahab"
    }
  },
  {
    "id": 3806721281,
    "type": "wisata",
    "name": "Cokotetra",
    "category": "cafe",
    "lat": -6.878483,
    "lon": 107.616839,
    "address": "",
    "phone": "",
    "website": "",
    "openingHours": "",
    "description": "",
    "tags": {
      "amenity": "cafe",
      "name": "Cokotetra"
    }
  },
  {
    "id": 3806721290,
    "type": "wisata",
    "name": "Goelali",
    "category": "restaurant",
    "lat": -6.8803626,
    "lon": 107.6163564,
    "address": "",
    "phone": "",
    "website": "",
    "openingHours": "",
    "description": "",
    "tags": {
      "amenity": "restaurant",
      "name": "Goelali"
    }
  },
  {
    "id": 3806721295,
    "type": "wisata",
    "name": "Kebab Turki",
    "category": "restaurant",
    "lat": -6.8811193,
    "lon": 107.6161344,
    "address": "",
    "phone": "",
    "website": "",
    "openingHours": "",
    "description": "",
    "tags": {
      "amenity": "restaurant",
      "name": "Kebab Turki"
    }
  },
  {
    "id": 3806721296,
    "type": "wisata",
    "name": "Kedai Chinese Food Nikmat",
    "category": "restaurant",
    "lat": -6.8786715,
    "lon": 107.616787,
    "address": "",
    "phone": "",
    "website": "",
    "openingHours": "",
    "description": "",
    "tags": {
      "amenity": "restaurant",
      "cuisine": "chinese",
      "name": "Kedai Chinese Food Nikmat",
      "name:en": "Kedai Nikmat"
    }
  },
  {
    "id": 3806721297,
    "type": "wisata",
    "name": "Kedai Roti 280",
    "category": "restaurant",
    "lat": -6.8804359,
    "lon": 107.6163385,
    "address": "",
    "phone": "",
    "website": "",
    "openingHours": "",
    "description": "",
    "tags": {
      "amenity": "restaurant",
      "name": "Kedai Roti 280"
    }
  },
  {
    "id": 3806721298,
    "type": "wisata",
    "name": "Lomie & Bakmie Inam Bonjol",
    "category": "restaurant",
    "lat": -6.8811754,
    "lon": 107.6161217,
    "address": "",
    "phone": "",
    "website": "",
    "openingHours": "",
    "description": "",
    "tags": {
      "amenity": "restaurant",
      "name": "Lomie & Bakmie Inam Bonjol"
    }
  },
  {
    "id": 3806721299,
    "type": "wisata",
    "name": "Mie Baso Sapi Panghegar",
    "category": "restaurant",
    "lat": -6.8787037,
    "lon": 107.6167785,
    "address": "",
    "phone": "",
    "website": "",
    "openingHours": "",
    "description": "",
    "tags": {
      "amenity": "restaurant",
      "name": "Mie Baso Sapi Panghegar"
    }
  },
  {
    "id": 3806721300,
    "type": "wisata",
    "name": "Nasi Timbal",
    "category": "restaurant",
    "lat": -6.8788817,
    "lon": 107.6167362,
    "address": "",
    "phone": "",
    "website": "",
    "openingHours": "",
    "description": "",
    "tags": {
      "amenity": "restaurant",
      "name": "Nasi Timbal"
    }
  },
  {
    "id": 3806721308,
    "type": "wisata",
    "name": "RAMEN HOUSE YAGAMI",
    "category": "restaurant",
    "lat": -6.8845352,
    "lon": 107.6135695,
    "address": "",
    "phone": "",
    "website": "",
    "openingHours": "",
    "description": "",
    "tags": {
      "amenity": "restaurant",
      "name": "RAMEN HOUSE YAGAMI",
      "name:en": "Ramen House Yagami"
    }
  },
  {
    "id": 3806721322,
    "type": "wisata",
    "name": "Toko Restu",
    "category": "restaurant",
    "lat": -6.8834273,
    "lon": 107.6147436,
    "address": "",
    "phone": "",
    "website": "",
    "openingHours": "",
    "description": "",
    "tags": {
      "amenity": "restaurant",
      "name": "Toko Restu"
    }
  },
  {
    "id": 3806721325,
    "type": "wisata",
    "name": "YUTAKANA",
    "category": "cafe",
    "lat": -6.8834511,
    "lon": 107.6147196,
    "address": "",
    "phone": "",
    "website": "",
    "openingHours": "",
    "description": "",
    "tags": {
      "amenity": "cafe",
      "name": "YUTAKANA",
      "name:en": "Yutakana"
    }
  },
  {
    "id": 3806746614,
    "type": "wisata",
    "name": "Dendeng Batokok Dago",
    "category": "restaurant",
    "lat": -6.8767404,
    "lon": 107.6179507,
    "address": "",
    "phone": "",
    "website": "",
    "openingHours": "",
    "description": "",
    "tags": {
      "amenity": "restaurant",
      "name": "Dendeng Batokok Dago"
    }
  },
  {
    "id": 3806758498,
    "type": "wisata",
    "name": "Bakmi Jogja",
    "category": "restaurant",
    "lat": -6.8745715,
    "lon": 107.6191251,
    "address": "",
    "phone": "",
    "website": "",
    "openingHours": "",
    "description": "",
    "tags": {
      "amenity": "restaurant",
      "name": "Bakmi Jogja"
    }
  },
  {
    "id": 3806758500,
    "type": "wisata",
    "name": "Roti Gareng",
    "category": "restaurant",
    "lat": -6.8745072,
    "lon": 107.6191486,
    "address": "",
    "phone": "",
    "website": "",
    "openingHours": "",
    "description": "",
    "tags": {
      "amenity": "restaurant",
      "name": "Roti Gareng"
    }
  },
  {
    "id": 3806758502,
    "type": "wisata",
    "name": "Warteg Dua Putri",
    "category": "restaurant",
    "lat": -6.8746857,
    "lon": 107.6190813,
    "address": "",
    "phone": "",
    "website": "",
    "openingHours": "",
    "description": "",
    "tags": {
      "amenity": "restaurant",
      "name": "Warteg Dua Putri"
    }
  },
  {
    "id": 3807724904,
    "type": "wisata",
    "name": "The Silk At Dago",
    "category": "hotel",
    "lat": -6.8737345,
    "lon": 107.6195926,
    "address": "Jalan Ir. H. Juanda",
    "phone": "",
    "website": "",
    "openingHours": "",
    "description": "",
    "tags": {
      "addr:city": "Bandung",
      "addr:housenumber": "392-394",
      "addr:postcode": "40135",
      "addr:street": "Jalan Ir. H. Juanda",
      "name": "The Silk At Dago",
      "name:en": "The Silk",
      "tourism": "hotel"
    }
  },
  {
    "id": 3807746639,
    "type": "wisata",
    "name": "Warung Tegal Makga Jaya",
    "category": "restaurant",
    "lat": -6.8734448,
    "lon": 107.6196056,
    "address": "",
    "phone": "",
    "website": "",
    "openingHours": "",
    "description": "",
    "tags": {
      "amenity": "restaurant",
      "name": "Warung Tegal Makga Jaya"
    }
  },
  {
    "id": 3809662418,
    "type": "wisata",
    "name": "Ngopi Doeloe",
    "category": "restaurant",
    "lat": -6.926744,
    "lon": 107.6276202,
    "address": "",
    "phone": "",
    "website": "",
    "openingHours": "",
    "description": "",
    "tags": {
      "amenity": "restaurant",
      "name": "Ngopi Doeloe"
    }
  },
  {
    "id": 3809666546,
    "type": "wisata",
    "name": "Benua Hotel",
    "category": "hotel",
    "lat": -6.9329864,
    "lon": 107.625909,
    "address": "",
    "phone": "",
    "website": "",
    "openingHours": "",
    "description": "",
    "tags": {
      "name": "Benua Hotel",
      "tourism": "hotel"
    }
  },
  {
    "id": 3809666549,
    "type": "wisata",
    "name": "Nasi Penjara",
    "category": "restaurant",
    "lat": -6.9027187,
    "lon": 107.6136333,
    "address": "",
    "phone": "",
    "website": "",
    "openingHours": "",
    "description": "",
    "tags": {
      "amenity": "restaurant",
      "name": "Nasi Penjara"
    }
  },
  {
    "id": 3809732416,
    "type": "wisata",
    "name": "Bantal Guling Alun Alun",
    "category": "guest_house",
    "lat": -6.9319114,
    "lon": 107.606556,
    "address": "Jalan Muhammad Toha",
    "phone": "+62224211425",
    "website": "",
    "openingHours": "",
    "description": "",
    "tags": {
      "addr:city": "Bandung",
      "addr:country": "ID",
      "addr:housenumber": "42",
      "addr:postcode": "40252",
      "addr:street": "Jalan Muhammad Toha",
      "name": "Bantal Guling Alun Alun",
      "phone": "+62224211425",
      "tourism": "guest_house"
    }
  },
  {
    "id": 3813685772,
    "type": "wisata",
    "name": "Siliwangi Water Park",
    "category": "swimming_pool",
    "lat": -6.9114646,
    "lon": 107.6200327,
    "address": "",
    "phone": "",
    "website": "",
    "openingHours": "",
    "description": "",
    "tags": {
      "leisure": "swimming_pool",
      "name": "Siliwangi Water Park"
    }
  },
  {
    "id": 3816558659,
    "type": "wisata",
    "name": "Dapur Thailand",
    "category": "restaurant",
    "lat": -6.9194536,
    "lon": 107.6161559,
    "address": "Jalan Veteran",
    "phone": "+62 022 4209268",
    "website": "",
    "openingHours": "",
    "description": "",
    "tags": {
      "addr:housenumber": "44",
      "addr:street": "Jalan Veteran",
      "amenity": "restaurant",
      "name": "Dapur Thailand",
      "phone": "+62 022 4209268"
    }
  },
  {
    "id": 3818319733,
    "type": "wisata",
    "name": "Herb & Spice",
    "category": "restaurant",
    "lat": -6.9026858,
    "lon": 107.5973876,
    "address": "",
    "phone": "",
    "website": "",
    "openingHours": "",
    "description": "",
    "tags": {
      "amenity": "restaurant",
      "name": "Herb & Spice"
    }
  },
  {
    "id": 3818634238,
    "type": "wisata",
    "name": "Bakmi Jogja",
    "category": "restaurant",
    "lat": -6.8966337,
    "lon": 107.5970159,
    "address": "",
    "phone": "",
    "website": "",
    "openingHours": "",
    "description": "",
    "tags": {
      "amenity": "restaurant",
      "name": "Bakmi Jogja"
    }
  },
  {
    "id": 3818634239,
    "type": "wisata",
    "name": "Waroeng Milk and Shake",
    "category": "restaurant",
    "lat": -6.8967854,
    "lon": 107.5970217,
    "address": "",
    "phone": "",
    "website": "",
    "openingHours": "",
    "description": "",
    "tags": {
      "amenity": "restaurant",
      "name": "Waroeng Milk and Shake"
    }
  },
  {
    "id": 3820681048,
    "type": "wisata",
    "name": "Ampera",
    "category": "restaurant",
    "lat": -6.8951185,
    "lon": 107.5880348,
    "address": "Jl. Dr. Djunjunan",
    "phone": "",
    "website": "http://www.amperadalemkaum.com/?m=1",
    "openingHours": "Mo-Su 09:00-22:00",
    "description": "",
    "tags": {
      "addr:housenumber": "119D",
      "addr:street": "Jl. Dr. Djunjunan",
      "amenity": "restaurant",
      "cuisine": "Sundanese",
      "name": "Ampera",
      "opening_hours": "Mo-Su 09:00-22:00",
      "website": "http://www.amperadalemkaum.com/?m=1"
    }
  },
  {
    "id": 4058092295,
    "type": "wisata",
    "name": "Tourist information centre",
    "category": "information",
    "lat": -6.9213167,
    "lon": 107.6065483,
    "address": "",
    "phone": "",
    "website": "",
    "openingHours": "",
    "description": "",
    "tags": {
      "name": "Tourist information centre",
      "tourism": "information"
    }
  },
  {
    "id": 4084457201,
    "type": "wisata",
    "name": "Raa Cha",
    "category": "restaurant",
    "lat": -6.893351,
    "lon": 107.6051095,
    "address": "",
    "phone": "",
    "website": "",
    "openingHours": "",
    "description": "",
    "tags": {
      "amenity": "restaurant",
      "name": "Raa Cha"
    }
  },
  {
    "id": 4087805054,
    "type": "wisata",
    "name": "Madame Sari",
    "category": "restaurant",
    "lat": -6.8975809,
    "lon": 107.6121376,
    "address": "Jalan Ir. H. Juanda",
    "phone": "+62 22 2509495",
    "website": "",
    "openingHours": "",
    "description": "",
    "tags": {
      "addr:city": "Bandung",
      "addr:housenumber": "85",
      "addr:street": "Jalan Ir. H. Juanda",
      "amenity": "restaurant",
      "internet_access": "wlan",
      "name": "Madame Sari",
      "phone": "+62 22 2509495"
    }
  },
  {
    "id": 4087805724,
    "type": "wisata",
    "name": "Raja Sunda",
    "category": "restaurant",
    "lat": -6.8969429,
    "lon": 107.5907416,
    "address": "",
    "phone": "",
    "website": "",
    "openingHours": "",
    "description": "",
    "tags": {
      "amenity": "restaurant",
      "name": "Raja Sunda"
    }
  },
  {
    "id": 4142931293,
    "type": "wisata",
    "name": "Tizi's Cafe",
    "category": "cafe",
    "lat": -6.8831106,
    "lon": 107.6138208,
    "address": "",
    "phone": "",
    "website": "",
    "openingHours": "Mo-Su 10:00-21:00",
    "description": "",
    "tags": {
      "amenity": "cafe",
      "cuisine": "asian",
      "name": "Tizi's Cafe",
      "name:en": "Tizi's",
      "opening_hours": "Mo-Su 10:00-21:00"
    }
  },
  {
    "id": 4143008395,
    "type": "wisata",
    "name": "Palem permai",
    "category": "hostel",
    "lat": -6.9377749,
    "lon": 107.6575683,
    "address": "Jalan Soekarno-Hatta",
    "phone": "",
    "website": "",
    "openingHours": "",
    "description": "",
    "tags": {
      "addr:street": "Jalan Soekarno-Hatta",
      "name": "Palem permai",
      "name:en": "Palem Permai",
      "tourism": "hostel"
    }
  },
  {
    "id": 4143034494,
    "type": "wisata",
    "name": "HOTEL METRO",
    "category": "hotel",
    "lat": -6.9407736,
    "lon": 107.6555103,
    "address": "Jalan Soekarno-Hatta",
    "phone": "",
    "website": "",
    "openingHours": "",
    "description": "",
    "tags": {
      "addr:street": "Jalan Soekarno-Hatta",
      "name": "HOTEL METRO",
      "tourism": "hotel"
    }
  },
  {
    "id": 4143043092,
    "type": "wisata",
    "name": "TELOR ASIN PAK JOS",
    "category": "information",
    "lat": -6.9131607,
    "lon": 107.6586461,
    "address": "Jalan Terusan Jakarta",
    "phone": "",
    "website": "",
    "openingHours": "",
    "description": "",
    "tags": {
      "addr:street": "Jalan Terusan Jakarta",
      "name": "TELOR ASIN PAK JOS",
      "tourism": "information"
    }
  },
  {
    "id": 4143046589,
    "type": "wisata",
    "name": "KEBON GEDANG",
    "category": "information",
    "lat": -6.9273816,
    "lon": 107.6426913,
    "address": "",
    "phone": "",
    "website": "",
    "openingHours": "",
    "description": "",
    "tags": {
      "name": "KEBON GEDANG",
      "name:en": "Kebon Gedang",
      "tourism": "information"
    }
  },
  {
    "id": 4143048396,
    "type": "wisata",
    "name": "Roti Gempol & Kopi Anjis!",
    "category": "cafe",
    "lat": -6.909191,
    "lon": 107.6276245,
    "address": "Jalan Bengawan",
    "phone": "",
    "website": "",
    "openingHours": "",
    "description": "",
    "tags": {
      "addr:street": "Jalan Bengawan",
      "amenity": "cafe",
      "name": "Roti Gempol & Kopi Anjis!"
    }
  },
  {
    "id": 4143072990,
    "type": "wisata",
    "name": "KAFE SISHA FURDAN",
    "category": "cafe",
    "lat": -6.9089804,
    "lon": 107.627429,
    "address": "Jalan Bengawan",
    "phone": "",
    "website": "",
    "openingHours": "",
    "description": "",
    "tags": {
      "addr:street": "Jalan Bengawan",
      "amenity": "cafe",
      "name": "KAFE SISHA FURDAN"
    }
  },
  {
    "id": 4150283093,
    "type": "wisata",
    "name": "ROCKEPO KAFE",
    "category": "cafe",
    "lat": -6.9071425,
    "lon": 107.6202146,
    "address": "Jalan Lombok",
    "phone": "",
    "website": "",
    "openingHours": "",
    "description": "",
    "tags": {
      "addr:street": "Jalan Lombok",
      "amenity": "cafe",
      "name": "ROCKEPO KAFE"
    }
  },
  {
    "id": 4150284489,
    "type": "wisata",
    "name": "Hotel Lengkong",
    "category": "hotel",
    "lat": -6.9231252,
    "lon": 107.6117327,
    "address": "Jalan Lengkong Besar",
    "phone": "",
    "website": "",
    "openingHours": "",
    "description": "",
    "tags": {
      "addr:street": "Jalan Lengkong Besar",
      "name": "Hotel Lengkong",
      "tourism": "hotel"
    }
  },
  {
    "id": 4169205936,
    "type": "wisata",
    "name": "Cafe Oz",
    "category": "restaurant",
    "lat": -6.8805774,
    "lon": 107.5942858,
    "address": "Jalan Bungur",
    "phone": "",
    "website": "",
    "openingHours": "",
    "description": "",
    "tags": {
      "addr:city": "Cipedes",
      "addr:housenumber": "23",
      "addr:street": "Jalan Bungur",
      "amenity": "restaurant",
      "name": "Cafe Oz"
    }
  },
  {
    "id": 4169205937,
    "type": "wisata",
    "name": "District 29",
    "category": "restaurant",
    "lat": -6.8799945,
    "lon": 107.5940974,
    "address": "Jalan Bungur",
    "phone": "",
    "website": "",
    "openingHours": "",
    "description": "",
    "tags": {
      "addr:city": "Cipedes",
      "addr:housenumber": "29",
      "addr:street": "Jalan Bungur",
      "amenity": "restaurant",
      "name": "District 29"
    }
  },
  {
    "id": 4177773891,
    "type": "wisata",
    "name": "Kopi kamu",
    "category": "cafe",
    "lat": -6.8979598,
    "lon": 107.6098119,
    "address": "Tamansari",
    "phone": "",
    "website": "",
    "openingHours": "",
    "description": "",
    "tags": {
      "addr:housenumber": "66",
      "addr:street": "Tamansari",
      "amenity": "cafe",
      "name": "Kopi kamu"
    }
  },
  {
    "id": 4256123806,
    "type": "wisata",
    "name": "Karnivor",
    "category": "cafe",
    "lat": -6.9079727,
    "lon": 107.6239556,
    "address": "Jalan R.E. Martadinata",
    "phone": "",
    "website": "",
    "openingHours": "",
    "description": "",
    "tags": {
      "addr:city": "Bandung",
      "addr:housenumber": "127",
      "addr:postcode": "40114",
      "addr:street": "Jalan R.E. Martadinata",
      "amenity": "cafe",
      "name": "Karnivor"
    }
  },
  {
    "id": 4256131112,
    "type": "wisata",
    "name": "Batagor Kingsley",
    "category": "restaurant",
    "lat": -6.9190972,
    "lon": 107.6153692,
    "address": "Jalan Veteran",
    "phone": "",
    "website": "",
    "openingHours": "",
    "description": "",
    "tags": {
      "addr:city": "Bandung",
      "addr:housenumber": "25",
      "addr:postcode": "40112",
      "addr:street": "Jalan Veteran",
      "amenity": "restaurant",
      "name": "Batagor Kingsley",
      "payment:coins": "yes",
      "payment:credit_cards": "no",
      "payment:debit_cards": "no",
      "payment:electronic_purses": "no",
      "payment:notes": "yes",
      "wheelchair": "limited"
    }
  },
  {
    "id": 4256137089,
    "type": "wisata",
    "name": "Beehive Cafe & Eatery",
    "category": "restaurant",
    "lat": -6.8875201,
    "lon": 107.6127573,
    "address": "Jalan Dayang Sumbi",
    "phone": "",
    "website": "",
    "openingHours": "",
    "description": "",
    "tags": {
      "addr:city": "Bandung",
      "addr:housenumber": "1",
      "addr:postcode": "40132",
      "addr:street": "Jalan Dayang Sumbi",
      "amenity": "restaurant",
      "name": "Beehive Cafe & Eatery"
    }
  },
  {
    "id": 4256140907,
    "type": "wisata",
    "name": "Noah's Barn",
    "category": "cafe",
    "lat": -6.8869895,
    "lon": 107.6126856,
    "address": "Jalan Dayang Sumbi",
    "phone": "",
    "website": "",
    "openingHours": "",
    "description": "",
    "tags": {
      "addr:city": "Bandung",
      "addr:housenumber": "2",
      "addr:postcode": "40132",
      "addr:street": "Jalan Dayang Sumbi",
      "amenity": "cafe",
      "name": "Noah's Barn"
    }
  },
  {
    "id": 4256164272,
    "type": "wisata",
    "name": "Hanamasa",
    "category": "restaurant",
    "lat": -6.9010104,
    "lon": 107.6123933,
    "address": "Jalan Ir. H. Juanda",
    "phone": "",
    "website": "",
    "openingHours": "",
    "description": "",
    "tags": {
      "addr:city": "Bandung",
      "addr:housenumber": "#48",
      "addr:postcode": "40115",
      "addr:street": "Jalan Ir. H. Juanda",
      "amenity": "restaurant",
      "cuisine": "japanese",
      "name": "Hanamasa"
    }
  },
  {
    "id": 4256331317,
    "type": "wisata",
    "name": "Badung Cafe & Resto",
    "category": "cafe",
    "lat": -6.9061929,
    "lon": 107.5981092,
    "address": "Jalan Dr. Cipto",
    "phone": "",
    "website": "",
    "openingHours": "",
    "description": "",
    "tags": {
      "addr:city": "Bandung",
      "addr:housenumber": "#3",
      "addr:postcode": "40171",
      "addr:street": "Jalan Dr. Cipto",
      "amenity": "cafe",
      "name": "Badung Cafe & Resto"
    }
  },
  {
    "id": 4258313505,
    "type": "wisata",
    "name": "Hummingbird Eatery",
    "category": "cafe",
    "lat": -6.904728,
    "lon": 107.6178751,
    "address": "Jalan Progo",
    "phone": "",
    "website": "",
    "openingHours": "",
    "description": "",
    "tags": {
      "addr:city": "Bandung",
      "addr:housenumber": "#14",
      "addr:postcode": "40115",
      "addr:street": "Jalan Progo",
      "amenity": "cafe",
      "cuisine": "coffee_shop",
      "name": "Hummingbird Eatery"
    }
  },
  {
    "id": 4258324190,
    "type": "wisata",
    "name": "Sushi Tei",
    "category": "restaurant",
    "lat": -6.9173914,
    "lon": 107.6133076,
    "address": "Jalan Sumatra",
    "phone": "",
    "website": "",
    "openingHours": "",
    "description": "",
    "tags": {
      "addr:city": "Bandung",
      "addr:housenumber": "#9",
      "addr:postcode": "40111",
      "addr:street": "Jalan Sumatra",
      "amenity": "restaurant",
      "cuisine": "japanese",
      "name": "Sushi Tei"
    }
  },
  {
    "id": 4258347459,
    "type": "wisata",
    "name": "Dapoer Pandan Wangi",
    "category": "restaurant",
    "lat": -6.9284008,
    "lon": 107.6240018,
    "address": "Jalan Patuha",
    "phone": "",
    "website": "",
    "openingHours": "",
    "description": "",
    "tags": {
      "addr:city": "Bandung",
      "addr:housenumber": "38",
      "addr:postcode": "40263",
      "addr:street": "Jalan Patuha",
      "amenity": "restaurant",
      "cuisine": "indonesian;sundanese",
      "diet:vegetarian": "yes",
      "name": "Dapoer Pandan Wangi"
    }
  },
  {
    "id": 4263828828,
    "type": "wisata",
    "name": "Regata Hotel",
    "category": "hotel",
    "lat": -6.8825827,
    "lon": 107.6005351,
    "address": "Jalan Dr. Setiabudi",
    "phone": "",
    "website": "",
    "openingHours": "",
    "description": "",
    "tags": {
      "addr:housenumber": "35",
      "addr:postcode": "40154",
      "addr:street": "Jalan Dr. Setiabudi",
      "name": "Regata Hotel",
      "tourism": "hotel"
    }
  },
  {
    "id": 4272686695,
    "type": "wisata",
    "name": "Eatboss Cafe",
    "category": "cafe",
    "lat": -6.9088982,
    "lon": 107.6184895,
    "address": "Jalan Aceh",
    "phone": "",
    "website": "",
    "openingHours": "",
    "description": "",
    "tags": {
      "addr:city": "Bandung",
      "addr:housenumber": "#66",
      "addr:postcode": "40113",
      "addr:street": "Jalan Aceh",
      "amenity": "cafe",
      "name": "Eatboss Cafe"
    }
  },
  {
    "id": 4288729690,
    "type": "wisata",
    "name": "Fabu Hotel Bandung",
    "category": "hotel",
    "lat": -6.9160701,
    "lon": 107.6019399,
    "address": "Jalan Kebon Jati",
    "phone": "",
    "website": "",
    "openingHours": "",
    "description": "",
    "tags": {
      "addr:housenumber": "32",
      "addr:postcode": "40181",
      "addr:street": "Jalan Kebon Jati",
      "internet_access": "wlan",
      "name": "Fabu Hotel Bandung",
      "tourism": "hotel"
    }
  },
  {
    "id": 4288914189,
    "type": "wisata",
    "name": "Gold's Gym Cihampelas Walk",
    "category": "fitness_centre",
    "lat": -6.8954072,
    "lon": 107.6040332,
    "address": "Jalan Cihampelas",
    "phone": "",
    "website": "",
    "openingHours": "",
    "description": "",
    "tags": {
      "addr:housenumber": "160 1.40A-B",
      "addr:postcode": "40132",
      "addr:street": "Jalan Cihampelas",
      "leisure": "fitness_centre",
      "name": "Gold's Gym Cihampelas Walk",
      "name:en": "Gold's Gym"
    }
  },
  {
    "id": 4288914489,
    "type": "wisata",
    "name": "Gold's Gym Braha City Walk",
    "category": "fitness_centre",
    "lat": -6.9170257,
    "lon": 107.6078468,
    "address": "Jalan Braga",
    "phone": "",
    "website": "",
    "openingHours": "",
    "description": "",
    "tags": {
      "addr:housenumber": "99-101",
      "addr:postcode": "40111",
      "addr:street": "Jalan Braga",
      "leisure": "fitness_centre",
      "name": "Gold's Gym Braha City Walk"
    }
  },
  {
    "id": 4320535079,
    "type": "wisata",
    "name": "Glosis Restaurant",
    "category": "restaurant",
    "lat": -6.9049365,
    "lon": 107.6227839,
    "address": "Jl. Citarum, Bandung Wetan, Cihapit,",
    "phone": "",
    "website": "",
    "openingHours": "",
    "description": "",
    "tags": {
      "addr:city": "Bandung, Jawa Barat",
      "addr:housenumber": "12",
      "addr:street": "Jl. Citarum, Bandung Wetan, Cihapit,",
      "amenity": "restaurant",
      "cuisine": "Glosis",
      "name": "Glosis Restaurant"
    }
  },
  {
    "id": 4320599452,
    "type": "wisata",
    "name": "Winner Bratwurst",
    "category": "restaurant",
    "lat": -6.9019264,
    "lon": 107.6214808,
    "address": "Jalan Cisangkuy",
    "phone": "",
    "website": "",
    "openingHours": "",
    "description": "",
    "tags": {
      "addr:city": "Bandung, Jawa Barat",
      "addr:housenumber": "64",
      "addr:street": "Jalan Cisangkuy",
      "amenity": "restaurant",
      "name": "Winner Bratwurst"
    }
  },
  {
    "id": 4320607780,
    "type": "wisata",
    "name": "Bober",
    "category": "cafe",
    "lat": -6.917453,
    "lon": 107.6132859,
    "address": "Jl. Sumatera",
    "phone": "",
    "website": "",
    "openingHours": "",
    "description": "",
    "tags": {
      "addr:city": "Bandung",
      "addr:housenumber": "11",
      "addr:street": "Jl. Sumatera",
      "amenity": "cafe",
      "cuisine": "regional",
      "name": "Bober"
    }
  },
  {
    "id": 4320639466,
    "type": "wisata",
    "name": "Brusselsspring",
    "category": "cafe",
    "lat": -6.9164146,
    "lon": 107.6138316,
    "address": "Jl. Sumatera",
    "phone": "",
    "website": "",
    "openingHours": "",
    "description": "",
    "tags": {
      "addr:city": "Bandung",
      "addr:housenumber": "28",
      "addr:street": "Jl. Sumatera",
      "amenity": "cafe",
      "cuisine": "cafe",
      "name": "Brusselsspring"
    }
  },
  {
    "id": 4320643325,
    "type": "wisata",
    "name": "Soleluna",
    "category": "cafe",
    "lat": -6.916593,
    "lon": 107.6138143,
    "address": "Jalan Sumatra",
    "phone": "",
    "website": "",
    "openingHours": "",
    "description": "",
    "tags": {
      "addr:city": "Bandung",
      "addr:housenumber": "28",
      "addr:street": "Jalan Sumatra",
      "amenity": "cafe",
      "name": "Soleluna"
    }
  },
  {
    "id": 4320644772,
    "type": "wisata",
    "name": "Kedai Ling-Ling",
    "category": "restaurant",
    "lat": -6.8856245,
    "lon": 107.5962474,
    "address": "Jl. Sukajadi",
    "phone": "",
    "website": "",
    "openingHours": "",
    "description": "",
    "tags": {
      "addr:city": "Bandung, Jawa Barat",
      "addr:housenumber": "157",
      "addr:street": "Jl. Sukajadi",
      "amenity": "restaurant",
      "cuisine": "japanese",
      "name": "Kedai Ling-Ling"
    }
  },
  {
    "id": 4320655631,
    "type": "wisata",
    "name": "Two Cents",
    "category": "cafe",
    "lat": -6.905489,
    "lon": 107.6206005,
    "address": "Cimanuk",
    "phone": "",
    "website": "",
    "openingHours": "",
    "description": "",
    "tags": {
      "addr:city": "Bandung",
      "addr:housenumber": "2",
      "addr:street": "Cimanuk",
      "amenity": "cafe",
      "cuisine": "coffee_shop",
      "name": "Two Cents"
    }
  },
  {
    "id": 4320683854,
    "type": "wisata",
    "name": "Wingz O Wingz Cafe And Resto",
    "category": "restaurant",
    "lat": -6.9205607,
    "lon": 107.614136,
    "address": "Jl. Naripan",
    "phone": "",
    "website": "",
    "openingHours": "",
    "description": "",
    "tags": {
      "addr:city": "Sumur Bandung, Kota Bandung, Jawa Barat",
      "addr:housenumber": "42",
      "addr:street": "Jl. Naripan",
      "amenity": "restaurant",
      "name": "Wingz O Wingz Cafe And Resto"
    }
  },
  {
    "id": 4320691228,
    "type": "wisata",
    "name": "90 Gourmet",
    "category": "restaurant",
    "lat": -6.9084176,
    "lon": 107.6241097,
    "address": "Jalan R.E. Martadinata",
    "phone": "",
    "website": "",
    "openingHours": "",
    "description": "",
    "tags": {
      "addr:city": "Bandung",
      "addr:housenumber": "90",
      "addr:street": "Jalan R.E. Martadinata",
      "amenity": "restaurant",
      "internet_access": "wlan",
      "name": "90 Gourmet"
    }
  },
  {
    "id": 4320694456,
    "type": "wisata",
    "name": "Captain's Seafood",
    "category": "restaurant",
    "lat": -6.9145571,
    "lon": 107.6295973,
    "address": "Jalan Laksamana Laut RE Martadinata",
    "phone": "",
    "website": "",
    "openingHours": "",
    "description": "",
    "tags": {
      "addr:city": "bandung, Jawa Barat",
      "addr:housenumber": "217",
      "addr:street": "Jalan Laksamana Laut RE Martadinata",
      "amenity": "restaurant",
      "cuisine": "Seafood_Restaurant",
      "name": "Captain's Seafood"
    }
  },
  {
    "id": 4320702955,
    "type": "wisata",
    "name": "BonChon",
    "category": "restaurant",
    "lat": -6.9047843,
    "lon": 107.6165469,
    "address": "banda",
    "phone": "",
    "website": "",
    "openingHours": "",
    "description": "",
    "tags": {
      "addr:city": "Bandung",
      "addr:housenumber": "23",
      "addr:street": "banda",
      "amenity": "restaurant",
      "name": "BonChon"
    }
  },
  {
    "id": 4320704774,
    "type": "wisata",
    "name": "Warung Misbar",
    "category": "restaurant",
    "lat": -6.9064702,
    "lon": 107.615994,
    "address": "Jalan R.E. Martadinata",
    "phone": "",
    "website": "",
    "openingHours": "",
    "description": "",
    "tags": {
      "addr:city": "Bandung, Jawa Barat",
      "addr:housenumber": "28 A",
      "addr:street": "Jalan R.E. Martadinata",
      "amenity": "restaurant",
      "name": "Warung Misbar"
    }
  },
  {
    "id": 4320705419,
    "type": "wisata",
    "name": "Little White Cafe",
    "category": "cafe",
    "lat": -6.9291255,
    "lon": 107.6196615,
    "address": "Jl. Lodaya, Malabar, Lengkong",
    "phone": "",
    "website": "",
    "openingHours": "",
    "description": "",
    "tags": {
      "addr:city": "Bandung",
      "addr:housenumber": "11A",
      "addr:street": "Jl. Lodaya, Malabar, Lengkong",
      "amenity": "cafe",
      "name": "Little White Cafe",
      "name:en": "Little White"
    }
  },
  {
    "id": 4320707953,
    "type": "wisata",
    "name": "Vanilla Kitchen & Wine",
    "category": "cafe",
    "lat": -6.9036224,
    "lon": 107.6209866,
    "address": "Jalan Cimanuk",
    "phone": "",
    "website": "",
    "openingHours": "",
    "description": "",
    "tags": {
      "addr:city": "Bandung, Jawa Barat",
      "addr:housenumber": "11",
      "addr:street": "Jalan Cimanuk",
      "amenity": "cafe",
      "name": "Vanilla Kitchen & Wine"
    }
  },
  {
    "id": 4320715786,
    "type": "wisata",
    "name": "Kopi Progo",
    "category": "cafe",
    "lat": -6.9046421,
    "lon": 107.618747,
    "address": "Progo, Citarum",
    "phone": "082317171515",
    "website": "https://maps.app.goo.gl/XpQSBsgo8WWMUXoB9",
    "openingHours": "Mo-Su 07:00-22:00",
    "description": "",
    "tags": {
      "addr:city": "Bandung",
      "addr:housenumber": "22",
      "addr:street": "Progo, Citarum",
      "amenity": "cafe",
      "cuisine": "coffee_shop",
      "internet_access": "yes",
      "name": "Kopi Progo",
      "opening_hours": "Mo-Su 07:00-22:00",
      "outdoor_seating": "no",
      "phone": "082317171515",
      "website": "https://maps.app.goo.gl/XpQSBsgo8WWMUXoB9"
    }
  },
  {
    "id": 4320722067,
    "type": "wisata",
    "name": "Giggle Box Cafe And Resto",
    "category": "cafe",
    "lat": -6.9045688,
    "lon": 107.6197076,
    "address": "Jl. Progo , Citarum",
    "phone": "",
    "website": "",
    "openingHours": "",
    "description": "",
    "tags": {
      "addr:city": "Bandung Wetan",
      "addr:housenumber": "33",
      "addr:street": "Jl. Progo , Citarum",
      "amenity": "cafe",
      "name": "Giggle Box Cafe And Resto"
    }
  },
  {
    "id": 4320729128,
    "type": "wisata",
    "name": "Warung Sangrai",
    "category": "restaurant",
    "lat": -6.9055992,
    "lon": 107.616762,
    "address": "L. L. R. E. Martadinata",
    "phone": "",
    "website": "",
    "openingHours": "",
    "description": "",
    "tags": {
      "addr:city": "Bandung",
      "addr:housenumber": "63",
      "addr:street": "L. L. R. E. Martadinata",
      "amenity": "restaurant",
      "name": "Warung Sangrai"
    }
  },
  {
    "id": 4320737157,
    "type": "wisata",
    "name": "Feast Restaurant",
    "category": "restaurant",
    "lat": -6.8742543,
    "lon": 107.6192351,
    "address": "JL. Insinyur Haji Juanda",
    "phone": "",
    "website": "",
    "openingHours": "",
    "description": "",
    "tags": {
      "addr:city": "Bandung, Jawa Barat",
      "addr:housenumber": "390",
      "addr:street": "JL. Insinyur Haji Juanda",
      "amenity": "restaurant",
      "name": "Feast Restaurant",
      "name:en": "Feast"
    }
  },
  {
    "id": 4320749637,
    "type": "wisata",
    "name": "Balista Signature",
    "category": "restaurant",
    "lat": -6.905619,
    "lon": 107.6167643,
    "address": "Banda",
    "phone": "",
    "website": "",
    "openingHours": "",
    "description": "",
    "tags": {
      "addr:city": "Bandung",
      "addr:housenumber": "32",
      "addr:street": "Banda",
      "amenity": "restaurant",
      "name": "Balista Signature"
    }
  },
  {
    "id": 4320793364,
    "type": "wisata",
    "name": "Vermont Restaurant",
    "category": "restaurant",
    "lat": -6.8810535,
    "lon": 107.5983139,
    "address": "Jalan Karang sari",
    "phone": "",
    "website": "",
    "openingHours": "",
    "description": "",
    "tags": {
      "addr:city": "Bandung",
      "addr:housenumber": "10",
      "addr:street": "Jalan Karang sari",
      "amenity": "restaurant",
      "name": "Vermont Restaurant"
    }
  },
  {
    "id": 4320805756,
    "type": "wisata",
    "name": "Blackball",
    "category": "restaurant",
    "lat": -6.8799997,
    "lon": 107.5981916,
    "address": "setiabudi",
    "phone": "",
    "website": "",
    "openingHours": "",
    "description": "",
    "tags": {
      "addr:city": "Bandung",
      "addr:housenumber": "74",
      "addr:street": "setiabudi",
      "amenity": "restaurant",
      "name": "Blackball"
    }
  },
  {
    "id": 4320824982,
    "type": "wisata",
    "name": "East and West Resto & Bar",
    "category": "restaurant",
    "lat": -6.9167187,
    "lon": 107.613811,
    "address": "Jalan Sumatra",
    "phone": "",
    "website": "",
    "openingHours": "",
    "description": "",
    "tags": {
      "addr:city": "Bandung",
      "addr:housenumber": "20",
      "addr:street": "Jalan Sumatra",
      "amenity": "restaurant",
      "name": "East and West Resto & Bar"
    }
  },
  {
    "id": 4320841831,
    "type": "wisata",
    "name": "Eatalia",
    "category": "restaurant",
    "lat": -6.924126,
    "lon": 107.6118868,
    "address": "Jl. Lengkong Besar",
    "phone": "",
    "website": "",
    "openingHours": "",
    "description": "",
    "tags": {
      "addr:city": "Bandung, Jawa Barat",
      "addr:housenumber": "45",
      "addr:street": "Jl. Lengkong Besar",
      "amenity": "restaurant",
      "name": "Eatalia"
    }
  },
  {
    "id": 4320853779,
    "type": "wisata",
    "name": "Praoe Seafood",
    "category": "restaurant",
    "lat": -6.914155,
    "lon": 107.6135284,
    "address": "Jl. Sumatera",
    "phone": "",
    "website": "",
    "openingHours": "",
    "description": "",
    "tags": {
      "addr:city": "Babakan Ciamis, Sumur Bandung, Kota Bandung, Jawa Barat",
      "addr:housenumber": "31",
      "addr:street": "Jl. Sumatera",
      "amenity": "restaurant",
      "name": "Praoe Seafood"
    }
  },
  {
    "id": 4320864438,
    "type": "wisata",
    "name": "Saisan Japanese Cuisine",
    "category": "restaurant",
    "lat": -6.8791733,
    "lon": 107.6009453,
    "address": "Jalan Hegarmanah",
    "phone": "",
    "website": "",
    "openingHours": "",
    "description": "",
    "tags": {
      "addr:city": "Hegarmanah, Cidadap, Bandung, Jawa Barat",
      "addr:housenumber": "28",
      "addr:street": "Jalan Hegarmanah",
      "amenity": "restaurant",
      "cuisine": "Japanese_Restaurant",
      "name": "Saisan Japanese Cuisine"
    }
  },
  {
    "id": 4320870346,
    "type": "wisata",
    "name": "Parit 9 Seafood",
    "category": "restaurant",
    "lat": -6.9104912,
    "lon": 107.6306581,
    "address": "Jalan Anggrek",
    "phone": "",
    "website": "",
    "openingHours": "",
    "description": "",
    "tags": {
      "addr:city": "Cihapit, Bandung Wetan, Bandung, Jawa Barat",
      "addr:housenumber": "61",
      "addr:street": "Jalan Anggrek",
      "amenity": "restaurant",
      "cuisine": "seafood_restaurant",
      "name": "Parit 9 Seafood",
      "name:en": "Parit 9"
    }
  },
  {
    "id": 4320923689,
    "type": "wisata",
    "name": "Southville",
    "category": "cafe",
    "lat": -6.9286472,
    "lon": 107.5868038,
    "address": "Jalan PETA",
    "phone": "",
    "website": "",
    "openingHours": "",
    "description": "",
    "tags": {
      "addr:city": "Bandung",
      "addr:housenumber": "249",
      "addr:street": "Jalan PETA",
      "amenity": "cafe",
      "name": "Southville"
    }
  },
  {
    "id": 4320925493,
    "type": "wisata",
    "name": "Grand Eastern",
    "category": "restaurant",
    "lat": -6.9151627,
    "lon": 107.5982134,
    "address": "Jl. Pasirkaliki",
    "phone": "",
    "website": "",
    "openingHours": "",
    "description": "",
    "tags": {
      "addr:city": "Bandung, Jawa Barat",
      "addr:housenumber": "18",
      "addr:street": "Jl. Pasirkaliki",
      "amenity": "restaurant",
      "name": "Grand Eastern"
    }
  },
  {
    "id": 4320928124,
    "type": "wisata",
    "name": "Wiki Koffie",
    "category": "cafe",
    "lat": -6.9160557,
    "lon": 107.6091519,
    "address": "Jl. Braga",
    "phone": "",
    "website": "",
    "openingHours": "",
    "description": "",
    "tags": {
      "addr:city": "Bandung, Jawa Barat",
      "addr:housenumber": "90",
      "addr:street": "Jl. Braga",
      "amenity": "cafe",
      "name": "Wiki Koffie"
    }
  },
  {
    "id": 4320934811,
    "type": "wisata",
    "name": "Thai Palace",
    "category": "restaurant",
    "lat": -6.8748841,
    "lon": 107.6188318,
    "address": "Jl. Ir. H.Djuanda",
    "phone": "",
    "website": "",
    "openingHours": "",
    "description": "",
    "tags": {
      "addr:city": "Dago, Coblong, Kota Bandung, Jawa Barat",
      "addr:housenumber": "345",
      "addr:street": "Jl. Ir. H.Djuanda",
      "amenity": "restaurant",
      "name": "Thai Palace"
    }
  },
  {
    "id": 4320941004,
    "type": "wisata",
    "name": "Saka Bistro & Bar",
    "category": "restaurant",
    "lat": -6.8810858,
    "lon": 107.5986064,
    "address": "Jl. Karangsari, Sukajadi",
    "phone": "",
    "website": "",
    "openingHours": "",
    "description": "",
    "tags": {
      "addr:city": "Bandung",
      "addr:street": "Jl. Karangsari, Sukajadi",
      "amenity": "restaurant",
      "name": "Saka Bistro & Bar"
    }
  },
  {
    "id": 4321003454,
    "type": "wisata",
    "name": "TJENDANA BISTRO",
    "category": "restaurant",
    "lat": -6.8826195,
    "lon": 107.5964138,
    "address": "Jl. Sukajadi Atas , Gegerkalong, Sukasari",
    "phone": "",
    "website": "",
    "openingHours": "",
    "description": "",
    "tags": {
      "addr:city": "bandung",
      "addr:housenumber": "371/181",
      "addr:street": "Jl. Sukajadi Atas , Gegerkalong, Sukasari",
      "amenity": "restaurant",
      "name": "TJENDANA BISTRO",
      "name:en": "Tjendana Bistro"
    }
  },
  {
    "id": 4321020958,
    "type": "wisata",
    "name": "Bornga",
    "category": "restaurant",
    "lat": -6.9039231,
    "lon": 107.5989336,
    "address": "Jl. Dr. Rajiman , Pasir Kaliki, Cicendo, Kota Bandung,",
    "phone": "",
    "website": "",
    "openingHours": "",
    "description": "",
    "tags": {
      "addr:city": "bandung",
      "addr:housenumber": "5",
      "addr:street": "Jl. Dr. Rajiman , Pasir Kaliki, Cicendo, Kota Bandung,",
      "amenity": "restaurant",
      "cuisine": "korean",
      "name": "Bornga"
    }
  },
  {
    "id": 4321036011,
    "type": "wisata",
    "name": "sudirman street food",
    "category": "restaurant",
    "lat": -6.9204002,
    "lon": 107.6002017,
    "address": "Capitol Plaza, Jl. Jendral Sudirman, Karanganyar, Astanaanyar",
    "phone": "",
    "website": "",
    "openingHours": "",
    "description": "",
    "tags": {
      "addr:city": "Bandung",
      "addr:housenumber": "91",
      "addr:street": "Capitol Plaza, Jl. Jendral Sudirman, Karanganyar, Astanaanyar",
      "amenity": "restaurant",
      "name": "sudirman street food"
    }
  },
  {
    "id": 4321049832,
    "type": "wisata",
    "name": "Cibadak Food Market",
    "category": "restaurant",
    "lat": -6.9216518,
    "lon": 107.6003966,
    "address": "Jl. Cibadak, Karanganyar, Astanaanyar",
    "phone": "",
    "website": "",
    "openingHours": "",
    "description": "",
    "tags": {
      "addr:city": "Bandung",
      "addr:housenumber": "152",
      "addr:street": "Jl. Cibadak, Karanganyar, Astanaanyar",
      "amenity": "restaurant",
      "name": "Cibadak Food Market"
    }
  },
  {
    "id": 4322633063,
    "type": "wisata",
    "name": "Everjoy Coffee and Cafe",
    "category": "cafe",
    "lat": -6.9052965,
    "lon": 107.6138859,
    "address": "Jl. Bahureksa, Bandung Wetan",
    "phone": "",
    "website": "",
    "openingHours": "",
    "description": "",
    "tags": {
      "addr:city": "Kota Bandung, Jawa Barat",
      "addr:housenumber": "3",
      "addr:street": "Jl. Bahureksa, Bandung Wetan",
      "amenity": "cafe",
      "cuisine": "coffee_shop",
      "name": "Everjoy Coffee and Cafe"
    }
  },
  {
    "id": 4322668890,
    "type": "wisata",
    "name": "Ayam Geprek Pangeran",
    "category": "restaurant",
    "lat": -6.9185493,
    "lon": 107.6096852,
    "address": "Jalan Braga",
    "phone": "",
    "website": "",
    "openingHours": "",
    "description": "",
    "tags": {
      "addr:city": "Bandung",
      "addr:housenumber": "34",
      "addr:street": "Jalan Braga",
      "amenity": "restaurant",
      "cuisine": "chicken",
      "name": "Ayam Geprek Pangeran"
    }
  },
  {
    "id": 4322669484,
    "type": "wisata",
    "name": "Porto Restaurant",
    "category": "restaurant",
    "lat": -6.8797792,
    "lon": 107.5984107,
    "address": "Jalan Doktor Setiabudi",
    "phone": "",
    "website": "",
    "openingHours": "",
    "description": "",
    "tags": {
      "addr:city": "Bandung, Jawa Barat",
      "addr:housenumber": "53",
      "addr:street": "Jalan Doktor Setiabudi",
      "amenity": "restaurant",
      "name": "Porto Restaurant"
    }
  },
  {
    "id": 4322674972,
    "type": "wisata",
    "name": "Jubilare Dine and Wine",
    "category": "restaurant",
    "lat": -6.8810021,
    "lon": 107.5982247,
    "address": "Jl. Karangsari",
    "phone": "",
    "website": "",
    "openingHours": "",
    "description": "",
    "tags": {
      "addr:city": "Bandung, Kota Bandung, Jawa Barat",
      "addr:street": "Jl. Karangsari",
      "amenity": "restaurant",
      "name": "Jubilare Dine and Wine"
    }
  },
  {
    "id": 4322677519,
    "type": "wisata",
    "name": "Rijsttafel Resto",
    "category": "restaurant",
    "lat": -6.9097236,
    "lon": 107.5977039,
    "address": "Jl. Pasirkaliki",
    "phone": "",
    "website": "",
    "openingHours": "",
    "description": "",
    "tags": {
      "addr:city": "Bandung, Jawa Barat",
      "addr:housenumber": "67",
      "addr:street": "Jl. Pasirkaliki",
      "amenity": "restaurant",
      "cuisine": "indonesian",
      "name": "Rijsttafel Resto"
    }
  },
  {
    "id": 4322680459,
    "type": "wisata",
    "name": "The Dreams Cake",
    "category": "restaurant",
    "lat": -6.9379902,
    "lon": 107.6193999,
    "address": "Jl. BKR",
    "phone": "",
    "website": "",
    "openingHours": "",
    "description": "",
    "tags": {
      "addr:city": "Ciateul, Regol, Pasirluyu, Bandung, Kota Bandung, Jawa Barat",
      "addr:housenumber": "22",
      "addr:street": "Jl. BKR",
      "amenity": "restaurant",
      "cuisine": "cake",
      "name": "The Dreams Cake"
    }
  },
  {
    "id": 4322684148,
    "type": "wisata",
    "name": "Fuku Ramen",
    "category": "restaurant",
    "lat": -6.9095532,
    "lon": 107.5976897,
    "address": "Jl. Pasirkaliki",
    "phone": "",
    "website": "",
    "openingHours": "",
    "description": "",
    "tags": {
      "addr:city": "Bandung, Jawa Barat",
      "addr:housenumber": "71",
      "addr:street": "Jl. Pasirkaliki",
      "amenity": "restaurant",
      "cuisine": "Noodle_Shop",
      "name": "Fuku Ramen"
    }
  },
  {
    "id": 4322688658,
    "type": "wisata",
    "name": "THE HARVEST DAGO",
    "category": "restaurant",
    "lat": -6.905355,
    "lon": 107.6104147,
    "address": "Jl. Ir. H. Djuanda",
    "phone": "",
    "website": "",
    "openingHours": "",
    "description": "",
    "tags": {
      "addr:city": "Dago, Tamansari, Bandung, Kota Bandung, Jawa Barat",
      "addr:housenumber": "15",
      "addr:street": "Jl. Ir. H. Djuanda",
      "amenity": "restaurant",
      "cuisine": "cake_shop",
      "name": "THE HARVEST DAGO",
      "name:en": "The Harvest"
    }
  },
  {
    "id": 4326457996,
    "type": "wisata",
    "name": "Chingu Cafe",
    "category": "cafe",
    "lat": -6.9010768,
    "lon": 107.6097423,
    "address": "Jl. Sawunggaling, Tamansari",
    "phone": "",
    "website": "",
    "openingHours": "",
    "description": "",
    "tags": {
      "addr:city": "Bandung, Jawa Barat",
      "addr:housenumber": "10",
      "addr:street": "Jl. Sawunggaling, Tamansari",
      "amenity": "cafe",
      "name": "Chingu Cafe",
      "name:it": "Chingu"
    }
  },