[
  {
    "id": 29391348,
    "type": "wisata",
    "name": "Hotel Sukajadi",
    "category": "hotel",
    "lat": -6.8862096,
    "lon": 107.5970895,
    "address": "",
    "phone": "",
    "website": "",
    "openingHours": "",
    "description": "",
    "tags": {
      "name": "Hotel Sukajadi",
      "tourism": "hotel"
    }
  },
  {
    "id": 29392374,
    "type": "wisata",
    "name": "Imperium",
    "category": "hotel",
    "lat": -6.9050087,
    "lon": 107.6009357,
    "address": "",
    "phone": "",
    "website": "",
    "openingHours": "",
    "description": "",
    "tags": {
      "name": "Imperium",
      "tourism": "hotel"
    }
  },
  {
    "id": 31288741,
    "type": "wisata",
    "name": "Terazza",
    "category": "restaurant",
    "lat": -6.8869435,
    "lon": 107.5811614,
    "address": "",
    "phone": "",
    "website": "",
    "openingHours": "",
    "description": "",
    "tags": {
      "amenity": "restaurant",
      "name": "Terazza"
    }
  },
  {
    "id": 31288745,
    "type": "wisata",
    "name": "Inti Laut",
    "category": "restaurant",
    "lat": -6.8873695,
    "lon": 107.5816872,
    "address": "",
    "phone": "",
    "website": "",
    "openingHours": "",
    "description": "",
    "tags": {
      "amenity": "restaurant",
      "name": "Inti Laut"
    }
  },
  {
    "id": 32041537,
    "type": "wisata",
    "name": "Grace",
    "category": "restaurant",
    "lat": -6.8815495,
    "lon": 107.5944013,
    "address": "",
    "phone": "",
    "website": "",
    "openingHours": "",
    "description": "",
    "tags": {
      "amenity": "restaurant",
      "name": "Grace"
    }
  },
  {
    "id": 32041585,
    "type": "wisata",
    "name": "Tomodachi",
    "category": "restaurant",
    "lat": -6.8807109,
    "lon": 107.5959997,
    "address": "",
    "phone": "",
    "website": "",
    "openingHours": "",
    "description": "",
    "tags": {
      "amenity": "restaurant",
      "created_by": "JOSM",
      "name": "Tomodachi"
    }
  },
  {
    "id": 32041593,
    "type": "wisata",
    "name": "Suis Butcher Steak House",
    "category": "restaurant",
    "lat": -6.8715552,
    "lon": 107.5940509,
    "address": "Jl. Setiabudhi",
    "phone": "",
    "website": "",
    "openingHours": "",
    "description": "",
    "tags": {
      "addr:city": "Bandung",
      "addr:housenumber": "174",
      "addr:street": "Jl. Setiabudhi",
      "amenity": "restaurant",
      "name": "Suis Butcher Steak House"
    }
  },
  {
    "id": 32041600,
    "type": "wisata",
    "name": "Ikan Bakar Pak Chi Met",
    "category": "restaurant",
    "lat": -6.8858733,
    "lon": 107.5962969,
    "address": "",
    "phone": "",
    "website": "",
    "openingHours": "",
    "description": "",
    "tags": {
      "amenity": "restaurant",
      "name": "Ikan Bakar Pak Chi Met"
    }
  },
  {
    "id": 32041651,
    "type": "wisata",
    "name": "Ikan Bakar Cianjur",
    "category": "restaurant",
    "lat": -6.8752093,
    "lon": 107.5964539,
    "address": "",
    "phone": "",
    "website": "",
    "openingHours": "",
    "description": "",
    "tags": {
      "amenity": "restaurant",
      "name": "Ikan Bakar Cianjur"
    }
  },
  {
    "id": 32041698,
    "type": "wisata",
    "name": "Ny. Suharti",
    "category": "restaurant",
    "lat": -6.8843694,
    "lon": 107.6012683,
    "address": "Jalan Cipaganti",
    "phone": "",
    "website": "",
    "openingHours": "",
    "description": "",
    "tags": {
      "addr:city": "Bandung",
      "addr:housenumber": "171",
      "addr:street": "Jalan Cipaganti",
      "amenity": "restaurant",
      "name": "Ny. Suharti"
    }
  },
  {
    "id": 32041903,
    "type": "wisata",
    "name": "Bumbu Desa Pasir Kaliki",
    "category": "restaurant",
    "lat": -6.9027926,
    "lon": 107.5978878,
    "address": "Jalan Pasirkaliki",
    "phone": "",
    "website": "",
    "openingHours": "",
    "description": "",
    "tags": {
      "addr:city": "Bandung, Jawa Barat",
      "addr:housenumber": "160",
      "addr:street": "Jalan Pasirkaliki",
      "amenity": "restaurant",
      "cuisine": "regional",
      "name": "Bumbu Desa Pasir Kaliki"
    }
  },
  {
    "id": 32042016,
    "type": "wisata",
    "name": "Topaz",
    "category": "hotel",
    "lat": -6.8927539,
    "lon": 107.5841016,
    "address": "",
    "phone": "",
    "website": "",
    "openingHours": "",
    "description": "",
    "tags": {
      "created_by": "JOSM",
      "name": "Topaz",
      "tourism": "hotel"
    }
  },
  {
    "id": 32519040,
    "type": "wisata",
    "name": "Sapu Lidi",
    "category": "restaurant",
    "lat": -6.8977742,
    "lon": 107.6036158,
    "address": "",
    "phone": "",
    "website": "",
    "openingHours": "",
    "description": "",
    "tags": {
      "amenity": "restaurant",
      "created_by": "JOSM",
      "name": "Sapu Lidi"
    }
  },
  {
    "id": 32519044,
    "type": "wisata",
    "name": "Raja Rasa",
    "category": "restaurant",
    "lat": -6.8799127,
    "lon": 107.5838387,
    "address": "Jalan Setra Ria",
    "phone": "",
    "website": "",
    "openingHours": "",
    "description": "",
    "tags": {
      "addr:city": "Bandung",
      "addr:housenumber": "1",
      "addr:postcode": "40163",
      "addr:street": "Jalan Setra Ria",
      "amenity": "restaurant",
      "cuisine": "seafood",
      "name": "Raja Rasa"
    }
  },
  {
    "id": 32519045,
    "type": "wisata",
    "name": "Oishii Steak",
    "category": "restaurant",
    "lat": -6.9058695,
    "lon": 107.5931889,
    "address": "",
    "phone": "",
    "website": "",
    "openingHours": "",
    "description": "",
    "tags": {
      "amenity": "restaurant",
      "name": "Oishii Steak"
    }
  },
  {
    "id": 32519051,
    "type": "wisata",
    "name": "Dakken",
    "category": "restaurant",
    "lat": -6.9057417,
    "lon": 107.6176217,
    "address": "Jalan R.E. Martadinata",
    "phone": "",
    "website": "",
    "openingHours": "",
    "description": "",
    "tags": {
      "addr:city": "Cihapit, Bandung, Jawa Barat",
      "addr:housenumber": "67",
      "addr:street": "Jalan R.E. Martadinata",
      "amenity": "restaurant",
      "name": "Dakken"
    }
  },
  {
    "id": 32519052,
    "type": "wisata",
    "name": "Geulis",
    "category": "hotel",
    "lat": -6.8914029,
    "lon": 107.61281,
    "address": "",
    "phone": "",
    "website": "",
    "openingHours": "",
    "description": "",
    "tags": {
      "building": "yes",
      "building:levels": "5",
      "building:roof": "tile",
      "building:structure": "confined_masonry",
      "building:use": "accommodation",
      "building:walls": "brick",
      "name": "Geulis",
      "tourism": "hotel"
    }
  },
  {
    "id": 32519055,
    "type": "wisata",
    "name": "Simpang Raya",
    "category": "restaurant",
    "lat": -6.8990133,
    "lon": 107.6195912,
    "address": "",
    "phone": "",
    "website": "",
    "openingHours": "",
    "description": "",
    "tags": {
      "amenity": "restaurant",
      "name": "Simpang Raya"
    }
  },
  {
    "id": 32519056,
    "type": "wisata",
    "name": "Sindang Reret",
    "category": "restaurant",
    "lat": -6.8990098,
    "lon": 107.6197139,
    "address": "Jl. Surapati",
    "phone": "",
    "website": "",
    "openingHours": "",
    "description": "",
    "tags": {
      "addr:city": "Bandung, Jawa BArat",
      "addr:housenumber": "53",
      "addr:street": "Jl. Surapati",
      "amenity": "restaurant",
      "name": "Sindang Reret"
    }
  },
  {
    "id": 32519294,
    "type": "wisata",
    "name": "Tamani",
    "category": "restaurant",
    "lat": -6.9056137,
    "lon": 107.6103851,
    "address": "",
    "phone": "",
    "website": "",
    "openingHours": "",
    "description": "",
    "tags": {
      "amenity": "restaurant",
      "name": "Tamani"
    }
  },
  {
    "id": 32519340,
    "type": "wisata",
    "name": "Yoghurt Cisangkuy",
    "category": "restaurant",
    "lat": -6.9018456,
    "lon": 107.6214397,
    "address": "",
    "phone": "",
    "website": "",
    "openingHours": "",
    "description": "",
    "tags": {
      "amenity": "restaurant",
      "name": "Yoghurt Cisangkuy"
    }
  },
  {
    "id": 32519342,
    "type": "wisata",
    "name": "Road Cafe",
    "category": "restaurant",
    "lat": -6.9055352,
    "lon": 107.6271646,
    "address": "Jalan Cilaki",
    "phone": "",
    "website": "",
    "openingHours": "",
    "description": "",
    "tags": {
      "addr:housenumber": "41",
      "addr:postcode": "40114",
      "addr:street": "Jalan Cilaki",
      "amenity": "restaurant",
      "name": "Road Cafe"
    }
  },
  {
    "id": 32520353,
    "type": "wisata",
    "name": "Grand Hotel Preanger",
    "category": "hotel",
    "lat": -6.9213431,
    "lon": 107.611654,
    "address": "Jalan Asia Afrika",
    "phone": "",
    "website": "https://aerowisatahotels.com/",
    "openingHours": "",
    "description": "",
    "tags": {
      "addr:housenumber": "81",
      "addr:street": "Jalan Asia Afrika",
      "name": "Grand Hotel Preanger",
      "tourism": "hotel",
      "website": "https://aerowisatahotels.com/",
      "wikipedia": "nl:Grand Hotel Preanger"
    }
  },
  {
    "id": 479720008,
    "type": "wisata",
    "name": "Bumi Sangkuriang",
    "category": "restaurant",
    "lat": -6.8668218,
    "lon": 107.6090526,
    "address": "Jalan Kiputih",
    "phone": "+62 22 2032661",
    "website": "https://bumi-sangkuriang.business.site/",
    "openingHours": "Mo-Su 07:00-23:00",
    "description": "",
    "tags": {
      "addr:city": "Bandung",
      "addr:housenumber": "12",
      "addr:street": "Jalan Kiputih",
      "amenity": "restaurant",
      "name": "Bumi Sangkuriang",
      "opening_hours": "Mo-Su 07:00-23:00",
      "phone": "+62 22 2032661",
      "website": "https://bumi-sangkuriang.business.site/"
    }
  },
  {
    "id": 479731735,
    "type": "wisata",
    "name": "Padma Hotel Bandung",
    "category": "hotel",
    "lat": -6.8646342,
    "lon": 107.6090275,
    "address": "Jalan Rancabentang",
    "phone": "",
    "website": "",
    "openingHours": "",
    "description": "",
    "tags": {
      "addr:city": "Bandung",
      "addr:housenumber": "#56-58",
      "addr:postcode": "40142",
      "addr:street": "Jalan Rancabentang",
      "name": "Padma Hotel Bandung",
      "tourism": "hotel"
    }
  },
  {
    "id": 479731737,
    "type": "wisata",
    "name": "Grha Ciumbuleuit Guest House",
    "category": "hotel",
    "lat": -6.8671861,
    "lon": 107.6062461,
    "address": "Jalan Ciumbeuluit",
    "phone": "",
    "website": "https://grhaciumbuleuitgh.com/",
    "openingHours": "24/7",
    "description": "",
    "tags": {
      "addr:street": "Jalan Ciumbeuluit",
      "internet_access": "wlan",
      "name": "Grha Ciumbuleuit Guest House",
      "opening_hours": "24/7",
      "tourism": "hotel",
      "website": "https://grhaciumbuleuitgh.com/"
    }
  },
  {
    "id": 1013447614,
    "type": "wisata",
    "name": "Arion Swiss Bell",
    "category": "hotel",
    "lat": -6.9131037,
    "lon": 107.6042599,
    "address": "",
    "phone": "",
    "website": "",
    "openingHours": "",
    "description": "",
    "tags": {
      "name": "Arion Swiss Bell",
      "tourism": "hotel"
    }
  },
  {
    "id": 1013570836,
    "type": "wisata",
    "name": "Hotel La Oma",
    "category": "hotel",
    "lat": -6.8206416,
    "lon": 107.6212638,
    "address": "",
    "phone": "",
    "website": "",
    "openingHours": "",
    "description": "",
    "tags": {
      "name": "Hotel La Oma",
      "tourism": "hotel"
    }
  },
  {
    "id": 1013575025,
    "type": "wisata",
    "name": "Villa Enggal",
    "category": "hotel",
    "lat": -6.8078241,
    "lon": 107.6396095,
    "address": "",
    "phone": "",
    "website": "",
    "openingHours": "",
    "description": "",
    "tags": {
      "name": "Villa Enggal",
      "tourism": "hotel"
    }
  },
  {
    "id": 1099327692,
    "type": "wisata",
    "name": "Jayakarta",
    "category": "hotel",
    "lat": -6.8708571,
    "lon": 107.6198065,
    "address": "Ir. H Juanda",
    "phone": "",
    "website": "",
    "openingHours": "",
    "description": "",
    "tags": {
      "addr:street": "Ir. H Juanda",
      "name": "Jayakarta",
      "tourism": "hotel"
    }
  },
  {
    "id": 1107877729,
    "type": "wisata",
    "name": "Sate Pak Ginno",
    "category": "restaurant",
    "lat": -6.9167625,
    "lon": 107.6183923,
    "address": "",
    "phone": "",
    "website": "",
    "openingHours": "",
    "description": "",
    "tags": {
      "amenity": "restaurant",
      "name": "Sate Pak Ginno",
      "wheelchair": "yes"
    }
  },
  {
    "id": 1108586477,
    "type": "wisata",
    "name": "Madthari",
    "category": "restaurant",
    "lat": -6.9027613,
    "lon": 107.6104139,
    "address": "Jl. Ranggagading",
    "phone": "",
    "website": "",
    "openingHours": "",
    "description": "",
    "tags": {
      "addr:city": "Bandung, Jawa Barat",
      "addr:street": "Jl. Ranggagading",
      "amenity": "restaurant",
      "name": "Madthari"
    }
  },
  {
    "id": 1108586489,
    "type": "wisata",
    "name": "Sate Maulana Yusuf",
    "category": "restaurant",
    "lat": -6.9009918,
    "lon": 107.6134343,
    "address": "",
    "phone": "",
    "website": "",
    "openingHours": "",
    "description": "",
    "tags": {
      "amenity": "restaurant",
      "name": "Sate Maulana Yusuf"
    }
  },
  {
    "id": 1116346945,
    "type": "wisata",
    "name": "Wisata Tanpa Nama",
    "category": "viewpoint",
    "lat": -6.7625006,
    "lon": 107.6249651,
    "address": "",
    "phone": "",
    "website": "",
    "openingHours": "",
    "description": "",
    "tags": {
      "tourism": "viewpoint"
    }
  },
  {
    "id": 1116346985,
    "type": "wisata",
    "name": "Hot Springs",
    "category": "attraction",
    "lat": -6.7614313,
    "lon": 107.6259079,
    "address": "",
    "phone": "",
    "website": "",
    "openingHours": "24/7",
    "description": "",
    "tags": {
      "name": "Hot Springs",
      "opening_hours": "24/7",
      "tourism": "attraction"
    }
  },
  {
    "id": 1116346998,
    "type": "wisata",
    "name": "Wisata Tanpa Nama",
    "category": "information",
    "lat": -6.7593161,
    "lon": 107.6189467,
    "address": "",
    "phone": "",
    "website": "",
    "openingHours": "",
    "description": "",
    "tags": {
      "amenity": "toilets",
      "fee": "yes",
      "information": "office",
      "tourism": "information"
    }
  },
  {
    "id": 1158819807,
    "type": "wisata",
    "name": "Sate Karjan",
    "category": "restaurant",
    "lat": -6.9126453,
    "lon": 107.5983597,
    "address": "",
    "phone": "",
    "website": "",
    "openingHours": "",
    "description": "",
    "tags": {
      "amenity": "restaurant",
      "name": "Sate Karjan"
    }
  },
  {
    "id": 1158819836,
    "type": "wisata",
    "name": "Camerlang",
    "category": "hotel",
    "lat": -6.9122725,
    "lon": 107.5976731,
    "address": "",
    "phone": "",
    "website": "",
    "openingHours": "",
    "description": "",
    "tags": {
      "name": "Camerlang",
      "tourism": "hotel"
    }
  },
  {
    "id": 1158819872,
    "type": "wisata",
    "name": "Mutiara",
    "category": "hotel",
    "lat": -6.9120915,
    "lon": 107.5984241,
    "address": "",
    "phone": "",
    "website": "",
    "openingHours": "",
    "description": "",
    "tags": {
      "name": "Mutiara",
      "tourism": "hotel"
    }
  },
  {
    "id": 1212690953,
    "type": "wisata",
    "name": "Edelweiss",
    "category": "hotel",
    "lat": -6.8820821,
    "lon": 107.5967445,
    "address": "",
    "phone": "",
    "website": "",
    "openingHours": "",
    "description": "",
    "tags": {
      "internet_access": "no",
      "name": "Edelweiss",
      "tourism": "hotel"
    }
  },
  {
    "id": 1308708818,
    "type": "wisata",
    "name": "Barbar Wing's",
    "category": "restaurant",
    "lat": -6.898751,
    "lon": 107.6030848,
    "address": "jalan boscha",
    "phone": "+6285624478749",
    "website": "https://barbarwings.wordpress.com/",
    "openingHours": "Mo-Su 06:00-23:55",
    "description": "",
    "tags": {
      "addr:city": "Bandung",
      "addr:housenumber": "8",
      "addr:postcode": "40161",
      "addr:street": "jalan boscha",
      "amenity": "restaurant",
      "is_in:country": "Indonesia",
      "is_in:county": "Sukajadi",
      "is_in:region": "Kota Bandung",
      "is_in:state": "Jawa Barat",
      "name": "Barbar Wing's",
      "opening_hours": "Mo-Su 06:00-23:55",
      "phone": "+6285624478749",
      "smoking": "outside",
      "website": "https://barbarwings.wordpress.com/"
    }
  },
  {
    "id": 1341941770,
    "type": "wisata",
    "name": "kedai timbel dago",
    "category": "restaurant",
    "lat": -6.8921526,
    "lon": 107.6129417,
    "address": "",
    "phone": "",
    "website": "",
    "openingHours": "",
    "description": "",
    "tags": {
      "amenity": "restaurant",
      "building": "yes",
      "building:levels": "1",
      "building:roof": "tile",
      "building:structure": "reinforced_masonry",
      "building:use": "commercial",
      "building:walls": "brick",
      "cuisine": "regional",
      "name": "kedai timbel dago",
      "name:en": "Kedai Timbel"
    }
  },
  {
    "id": 1341941792,
    "type": "wisata",
    "name": "dago panyawangan",
    "category": "restaurant",
    "lat": -6.8867215,
    "lon": 107.6167462,
    "address": "Jl. Ir. H.Djuanda",
    "phone": "",
    "website": "",
    "openingHours": "",
    "description": "",
    "tags": {
      "addr:city": "Lb. Siliwangi, Coblong, Kota Bandung, Jawa Barat",
      "addr:housenumber": "127",
      "addr:street": "Jl. Ir. H.Djuanda",
      "amenity": "restaurant",
      "cuisine": "regional",
      "name": "dago panyawangan",
      "name:en": "Panyawangan"
    }
  },
  {
    "id": 1342896154,
    "type": "wisata",
    "name": "Dago Panineungan",
    "category": "restaurant",
    "lat": -6.8872957,
    "lon": 107.6138988,
    "address": "",
    "phone": "",
    "website": "",
    "openingHours": "",
    "description": "",
    "tags": {
      "amenity": "restaurant",
      "name": "Dago Panineungan",
      "name:en": "Panineungan"
    }
  },
  {
    "id": 1342928043,
    "type": "wisata",
    "name": "Hotel Patra Jasa",
    "category": "hotel",
    "lat": -6.8889817,
    "lon": 107.6138659,
    "address": "",
    "phone": "",
    "website": "",
    "openingHours": "",
    "description": "",
    "tags": {
      "name": "Hotel Patra Jasa",
      "tourism": "hotel"
    }
  },
  {
    "id": 1342944385,
    "type": "wisata",
    "name": "Hotel Utari",
    "category": "hotel",
    "lat": -6.90074,
    "lon": 107.6126245,
    "address": "",
    "phone": "",
    "website": "",
    "openingHours": "",
    "description": "",
    "tags": {
      "name": "Hotel Utari",
      "tourism": "hotel"
    }
  },
  {
    "id": 1342944393,
    "type": "wisata",
    "name": "Hotel Karmila",
    "category": "hotel",
    "lat": -6.9028896,
    "lon": 107.6116316,
    "address": "",
    "phone": "",
    "website": "",
    "openingHours": "",
    "description": "",
    "tags": {
      "name": "Hotel Karmila",
      "tourism": "hotel"
    }
  },
  {
    "id": 1342948124,
    "type": "wisata",
    "name": "Hotel Halmahera",
    "category": "hotel",
    "lat": -6.907181,
    "lon": 107.616129,
    "address": "",
    "phone": "",
    "website": "",
    "openingHours": "",
    "description": "",
    "tags": {
      "name": "Hotel Halmahera",
      "tourism": "hotel"
    }
  },
  {
    "id": 1342948128,
    "type": "wisata",
    "name": "Hotel Gandasari",
    "category": "hotel",
    "lat": -6.9078607,
    "lon": 107.6130004,
    "address": "",
    "phone": "",
    "website": "",
    "openingHours": "",
    "description": "",
    "tags": {
      "name": "Hotel Gandasari",
      "tourism": "hotel"
    }
  },
  {
    "id": 1342970049,
    "type": "wisata",
    "name": "Hotel Royal Palace",
    "category": "hotel",
    "lat": -6.9173595,
    "lon": 107.612419,
    "address": "",
    "phone": "",
    "website": "",
    "openingHours": "",
    "description": "",
    "tags": {
      "name": "Hotel Royal Palace",
      "tourism": "hotel"
    }
  },
  {
    "id": 1342970053,
    "type": "wisata",
    "name": "Hotel Royal Merdeka",
    "category": "hotel",
    "lat": -6.9111142,
    "lon": 107.6107756,
    "address": "",
    "phone": "",
    "website": "",
    "openingHours": "",
    "description": "",
    "tags": {
      "name": "Hotel Royal Merdeka",
      "tourism": "hotel"
    }
  },
  {
    "id": 1346794366,
    "type": "wisata",
    "name": "B'gana restoran",
    "category": "restaurant",
    "lat": -6.8972541,
    "lon": 107.6147191,
    "address": "Jl. Dipatiukur",
    "phone": "",
    "website": "",
    "openingHours": "",
    "description": "",
    "tags": {
      "addr:city": "Bandung, Jawa Barat",
      "addr:street": "Jl. Dipatiukur",
      "amenity": "restaurant",
      "name": "B'gana restoran",
      "name:it": "B'gana"
    }
  },
  {
    "id": 1346794387,
    "type": "wisata",
    "name": "Victoria",
    "category": "restaurant",
    "lat": -6.8968401,
    "lon": 107.6152372,
    "address": "Jl. Pager Gunung",
    "phone": "",
    "website": "",
    "openingHours": "",
    "description": "",
    "tags": {
      "addr:city": "Bandung, Jawa Barat",
      "addr:housenumber": "2",
      "addr:street": "Jl. Pager Gunung",
      "amenity": "restaurant",
      "name": "Victoria"
    }
  },
  {
    "id": 1352129471,
    "type": "wisata",
    "name": "Ampera",
    "category": "restaurant",
    "lat": -6.8982722,
    "lon": 107.6369137,
    "address": "",
    "phone": "",
    "website": "",
    "openingHours": "",
    "description": "",
    "tags": {
      "amenity": "restaurant",
      "name": "Ampera"
    }
  },
  {
    "id": 1381753562,
    "type": "wisata",
    "name": "Sheraton Bandung Hotel & Towers",
    "category": "hotel",
    "lat": -6.8743988,
    "lon": 107.6195436,
    "address": "Jalan Ir. H. Juanda",
    "phone": "+62 22 2500303",
    "website": "https://www.marriott.com/hotels/travel/bdosi-sheraton-bandung-hotel-and-towers/",
    "openingHours": "",
    "description": "",
    "tags": {
      "addr:city": "Bandung",
      "addr:housenumber": "390",
      "addr:postcode": "40135",
      "addr:street": "Jalan Ir. H. Juanda",
      "email": "Reservationsbandung@sheraton.com",
      "fax": "+62 22 2500301",
      "name": "Sheraton Bandung Hotel & Towers",
      "phone": "+62 22 2500303",
      "rooms": "156",
      "tourism": "hotel",
      "website": "https://www.marriott.com/hotels/travel/bdosi-sheraton-bandung-hotel-and-towers/"
    }
  },
  {
    "id": 1385420759,
    "type": "wisata",
    "name": "Rumah Makan Padang",
    "category": "restaurant",
    "lat": -6.8837407,
    "lon": 107.6148998,
    "address": "",
    "phone": "",
    "website": "",
    "openingHours": "",
    "description": "",
    "tags": {
      "amenity": "restaurant",
      "name": "Rumah Makan Padang"
    }
  },
  {
    "id": 1385463113,
    "type": "wisata",
    "name": "Wisma Putri Pocut Baren",
    "category": "motel",
    "lat": -6.8852449,
    "lon": 107.6195556,
    "address": "",
    "phone": "",
    "website": "",
    "openingHours": "",
    "description": "",
    "tags": {
      "name": "Wisma Putri Pocut Baren",
      "tourism": "motel"
    }
  },
  {
    "id": 1449683333,
    "type": "wisata",
    "name": "Stadion Sangkuriang",
    "category": "sports_centre",
    "lat": -6.8688788,
    "lon": 107.5365791,
    "address": "",
    "phone": "",
    "website": "",
    "openingHours": "",
    "description": "",
    "tags": {
      "leisure": "sports_centre",
      "name": "Stadion Sangkuriang",
      "sport": "soccer"
    }
  },
  {
    "id": 1550350327,
    "type": "wisata",
    "name": "Pandiga Sport Center",
    "category": "swimming_pool",
    "lat": -6.875375,
    "lon": 107.5556866,
    "address": "",
    "phone": "",
    "website": "",
    "openingHours": "",
    "description": "",
    "tags": {
      "covered": "yes",
      "leisure": "swimming_pool",
      "motor_vehicle": "designated",
      "name": "Pandiga Sport Center",
      "sport": "swimming"
    }
  },
  {
    "id": 1586233214,
    "type": "wisata",
    "name": "Sari Ater Kamboti Bandung",
    "category": "hotel",
    "lat": -6.8830236,
    "lon": 107.5800241,
    "address": "",
    "phone": "+62 222-011000",
    "website": "https://sariater-hotel.com/kamboti",
    "openingHours": "",
    "description": "",
    "tags": {
      "name": "Sari Ater Kamboti Bandung",
      "phone": "+62 222-011000",
      "tourism": "hotel",
      "website": "https://sariater-hotel.com/kamboti"
    }
  },
  {
    "id": 1587039078,
    "type": "wisata",
    "name": "The Majesty Hotel",
    "category": "hotel",
    "lat": -6.883156,
    "lon": 107.581017,
    "address": "Jl. Surya Sumantri",
    "phone": "",
    "website": "",
    "openingHours": "",
    "description": "",
    "tags": {
      "addr:city": "Bandung",
      "addr:street": "Jl. Surya Sumantri",
      "name": "The Majesty Hotel",
      "tourism": "hotel"
    }
  },
  {
    "id": 1655564498,
    "type": "wisata",
    "name": "Provence",
    "category": "hotel",
    "lat": -6.8620761,
    "lon": 107.584846,
    "address": "",
    "phone": "",
    "website": "",
    "openingHours": "",
    "description": "",
    "tags": {
      "name": "Provence",
      "source": "Gmap",
      "tourism": "hotel"
    }
  },
  {
    "id": 1655715182,
    "type": "wisata",
    "name": "Warung Surabi Setiabudhi",
    "category": "restaurant",
    "lat": -6.8682748,
    "lon": 107.5938519,
    "address": "",
    "phone": "",
    "website": "",
    "openingHours": "",
    "description": "",
    "tags": {
      "amenity": "restaurant",
      "name": "Warung Surabi Setiabudhi"
    }
  },
  {
    "id": 1656979199,
    "type": "wisata",
    "name": "RM Padang Mirasari",
    "category": "restaurant",
    "lat": -6.8823595,
    "lon": 107.5758245,
    "address": "",
    "phone": "",
    "website": "",
    "openingHours": "",
    "description": "",
    "tags": {
      "amenity": "restaurant",
      "cuisine": "regional",
      "name": "RM Padang Mirasari"
    }
  },
  {
    "id": 1656979200,
    "type": "wisata",
    "name": "RM Padang Siang Malam",
    "category": "restaurant",
    "lat": -6.8823742,
    "lon": 107.5762796,
    "address": "",
    "phone": "",
    "website": "",
    "openingHours": "",
    "description": "",
    "tags": {
      "amenity": "restaurant",
      "name": "RM Padang Siang Malam"
    }
  },
  {
    "id": 1657013613,
    "type": "wisata",
    "name": "RM Daun Pisang",
    "category": "restaurant",
    "lat": -6.873753,
    "lon": 107.5957989,
    "address": "",
    "phone": "",
    "website": "",
    "openingHours": "",
    "description": "",
    "tags": {
      "amenity": "restaurant",
      "cuisine": "regional",
      "name": "RM Daun Pisang"
    }
  },
  {
    "id": 1657158617,
    "type": "wisata",
    "name": "Warung Tekko",
    "category": "restaurant",
    "lat": -6.8744394,
    "lon": 107.5962776,
    "address": "",
    "phone": "",
    "website": "",
    "openingHours": "",
    "description": "",
    "tags": {
      "amenity": "restaurant",
      "cuisine": "regional",
      "name": "Warung Tekko"
    }
  },
  {
    "id": 1657158618,
    "type": "wisata",
    "name": "Kambing Bakar Cairo",
    "category": "restaurant",
    "lat": -6.8703438,
    "lon": 107.5917527,
    "address": "",
    "phone": "",
    "website": "",
    "openingHours": "",
    "description": "",
    "tags": {
      "amenity": "restaurant",
      "cuisine": "kebab",
      "name": "Kambing Bakar Cairo"
    }
  },
  {
    "id": 1660110853,
    "type": "wisata",
    "name": "Pizza Hut",
    "category": "restaurant",
    "lat": -6.8831642,
    "lon": 107.6025761,
    "address": "",
    "phone": "",
    "website": "",
    "openingHours": "",
    "description": "",
    "tags": {
      "amenity": "restaurant",
      "cuisine": "pizza",
      "name": "Pizza Hut"
    }
  },
  {
    "id": 1666758044,
    "type": "wisata",
    "name": "RM Padang Sederhana",
    "category": "restaurant",
    "lat": -6.8828983,
    "lon": 107.6005782,
    "address": "",
    "phone": "",
    "website": "",
    "openingHours": "",
    "description": "",
    "tags": {
      "amenity": "restaurant",
      "cuisine": "regional",
      "name": "RM Padang Sederhana"
    }
  },
  {
    "id": 1668245119,
    "type": "wisata",
    "name": "Kantin Garasi",
    "category": "restaurant",
    "lat": -6.8938944,
    "lon": 107.6089033,
    "address": "",
    "phone": "",
    "website": "",
    "openingHours": "",
    "description": "",
    "tags": {
      "amenity": "restaurant",
      "cuisine": "regional",
      "name": "Kantin Garasi"
    }
  },
  {
    "id": 1676404546,
    "type": "wisata",
    "name": "Bebek Goreng H. Slamet",
    "category": "restaurant",
    "lat": -6.8716969,
    "lon": 107.5941246,
    "address": "Jalan Setiabudi",
    "phone": "",
    "website": "",
    "openingHours": "",
    "description": "",
    "tags": {
      "addr:city": "Bandung",
      "addr:housenumber": "172",
      "addr:street": "Jalan Setiabudi",
      "amenity": "restaurant",
      "name": "Bebek Goreng H. Slamet"
    }
  },
  {
    "id": 1700556142,
    "type": "wisata",
    "name": "Ayam Cobek Langganan",
    "category": "restaurant",
    "lat": -6.9010333,
    "lon": 107.6016546,
    "address": "",
    "phone": "",
    "website": "",
    "openingHours": "",
    "description": "",
    "tags": {
      "amenity": "restaurant",
      "cuisine": "regional",
      "name": "Ayam Cobek Langganan"
    }
  },
  {
    "id": 1700853213,
    "type": "wisata",
    "name": "Perdana Wisata",
    "category": "hotel",
    "lat": -6.9201876,
    "lon": 107.6014738,
    "address": "",
    "phone": "",
    "website": "www.hotelperdanawisata.com",
    "openingHours": "",
    "description": "",
    "tags": {
      "name": "Perdana Wisata",
      "tourism": "hotel",
      "website": "www.hotelperdanawisata.com"
    }
  },
  {
    "id": 1706574395,
    "type": "wisata",
    "name": "Hotel Agusta",
    "category": "hotel",
    "lat": -6.8976004,
    "lon": 107.6337287,
    "address": "",
    "phone": "",
    "website": "",
    "openingHours": "",
    "description": "",
    "tags": {
      "name": "Hotel Agusta",
      "tourism": "hotel"
    }
  },
  {
    "id": 1706574396,
    "type": "wisata",
    "name": "Hotel Yehezkiel",
    "category": "hotel",
    "lat": -6.8979998,
    "lon": 107.6325164,
    "address": "",
    "phone": "",
    "website": "",
    "openingHours": "",
    "description": "",
    "tags": {
      "name": "Hotel Yehezkiel",
      "tourism": "hotel"
    }
  },
  {
    "id": 1708347961,
    "type": "wisata",
    "name": "Wisata Tanpa Nama",
    "category": "picnic_site",
    "lat": -6.831723,
    "lon": 107.6567441,
    "address": "",
    "phone": "",
    "website": "",
    "openingHours": "",
    "description": "",
    "tags": {
      "tourism": "picnic_site"
    }
  },
  {
    "id": 1746708561,
    "type": "wisata",
    "name": "Wisata Tanpa Nama",
    "category": "viewpoint",
    "lat": -6.7595457,
    "lon": 107.6187144,
    "address": "",
    "phone": "",
    "website": "",
    "openingHours": "",
    "description": "",
    "tags": {
      "tourism": "viewpoint"
    }
  },
  {
    "id": 1746761936,
    "type": "wisata",
    "name": "Starbucks",
    "category": "cafe",
    "lat": -6.8939696,
    "lon": 107.6055017,
    "address": "Jalan Cihampelas",
    "phone": "+62 22 2061102",
    "website": "",
    "openingHours": "",
    "description": "",
    "tags": {
      "addr:postcode": "40131",
      "addr:street": "Jalan Cihampelas",
      "amenity": "cafe",
      "brand": "Starbucks",
      "brand:wikidata": "Q37158",
      "brand:wikipedia": "en:Starbucks",
      "cuisine": "coffee_shop",
      "email": "feedback@starbucks.co.id",
      "internet_access": "wlan",
      "name": "Starbucks",
      "official_name": "Starbucks Coffee",
      "phone": "+62 22 2061102",
      "takeaway": "yes"
    }
  },
  {
    "id": 1746761937,
    "type": "wisata",
    "name": "Bebek Crispy",
    "category": "restaurant",
    "lat": -6.8934997,
    "lon": 107.6050826,
    "address": "",
    "phone": "",
    "website": "",
    "openingHours": "",
    "description": "",
    "tags": {
      "amenity": "restaurant",
      "cuisine": "japanese",
      "name": "Bebek Crispy",
      "name:en": "Shin Men"
    }
  },
  {
    "id": 1785955514,
    "type": "wisata",
    "name": "Hotel California",
    "category": "motel",
    "lat": -6.9037861,
    "lon": 107.6053253,
    "address": "",
    "phone": "",
    "website": "",
    "openingHours": "",
    "description": "",
    "tags": {
      "name": "Hotel California",
      "tourism": "motel"
    }
  },
  {
    "id": 1788564509,
    "type": "wisata",
    "name": "Otten Inn",
    "category": "motel",
    "lat": -6.9013335,
    "lon": 107.5990484,
    "address": "",
    "phone": "",
    "website": "",
    "openingHours": "",
    "description": "",
    "tags": {
      "name": "Otten Inn",
      "tourism": "motel"
    }
  },
  {
    "id": 1788564513,
    "type": "wisata",
    "name": "Otten Ville Boutique Hotel",
    "category": "hotel",
    "lat": -6.9028932,
    "lon": 107.6007213,
    "address": "",
    "phone": "",
    "website": "",
    "openingHours": "",
    "description": "",
    "tags": {
      "name": "Otten Ville Boutique Hotel",
      "tourism": "hotel"
    }
  },
  {
    "id": 1798427749,
    "type": "wisata",
    "name": "Wisata Tanpa Nama",
    "category": "viewpoint",
    "lat": -6.9298148,
    "lon": 107.7759685,
    "address": "",
    "phone": "",
    "website": "",
    "openingHours": "",
    "description": "",
    "tags": {
      "tourism": "viewpoint"
    }
  },
  {
    "id": 1801234292,
    "type": "wisata",
    "name": "Bumi Bhandawa",
    "category": "hotel",
    "lat": -6.8840321,
    "lon": 107.6256947,
    "address": "",
    "phone": "",
    "website": "",
    "openingHours": "",
    "description": "",
    "tags": {
      "name": "Bumi Bhandawa",
      "tourism": "hotel"
    }
  },
  {
    "id": 1873943402,
    "type": "wisata",
    "name": "Pempek Pak Raden",
    "category": "restaurant",
    "lat": -6.8825278,
    "lon": 107.5802874,
    "address": "",
    "phone": "",
    "website": "",
    "openingHours": "",
    "description": "",
    "tags": {
      "amenity": "restaurant",
      "name": "Pempek Pak Raden"
    }
  },
  {
    "id": 1924435640,
    "type": "wisata",
    "name": "Sensa",
    "category": "hotel",
    "lat": -6.8948421,
    "lon": 107.6049865,
    "address": "",
    "phone": "",
    "website": "",
    "openingHours": "",
    "description": "",
    "tags": {
      "name": "Sensa",
      "tourism": "hotel"
    }
  },
  {
    "id": 1924435646,
    "type": "wisata",
    "name": "BMK",
    "category": "restaurant",
    "lat": -6.8939367,
    "lon": 107.6050187,
    "address": "",
    "phone": "",
    "website": "",
    "openingHours": "",
    "description": "",
    "tags": {
      "amenity": "restaurant",
      "cuisine": "regional",
      "name": "BMK"
    }
  },
  {
    "id": 1924439599,
    "type": "wisata",
    "name": "Aston Tropicana",
    "category": "hotel",
    "lat": -6.8964744,
    "lon": 107.6036507,
    "address": "",
    "phone": "",
    "website": "",
    "openingHours": "",
    "description": "",
    "tags": {
      "name": "Aston Tropicana",
      "stars": "4",
      "tourism": "hotel"
    }
  },
  {
    "id": 1924439614,
    "type": "wisata",
    "name": "Fave",
    "category": "hotel",
    "lat": -6.896059,
    "lon": 107.6036829,
    "address": "",
    "phone": "",
    "website": "",
    "openingHours": "",
    "description": "",
    "tags": {
      "name": "Fave",
      "tourism": "hotel"
    }
  },
  {
    "id": 1924450381,
    "type": "wisata",
    "name": "Mama’s Greman Restaurant",
    "category": "restaurant",
    "lat": -6.8959285,
    "lon": 107.6031089,
    "address": "JL Prof. Eyckman",
    "phone": "",
    "website": "",
    "openingHours": "",
    "description": "",
    "tags": {
      "addr:city": "Pasteur, Sukajadi, Kota Bandung, Jawa Barat",
      "addr:housenumber": "3",
      "addr:street": "JL Prof. Eyckman",
      "amenity": "restaurant",
      "cuisine": "german",
      "name": "Mama’s Greman Restaurant"
    }
  },
  {
    "id": 1930130174,
    "type": "wisata",
    "name": "Taman Bermain",
    "category": "playground",
    "lat": -6.8124381,
    "lon": 107.6148314,
    "address": "",
    "phone": "",
    "website": "",
    "openingHours": "",
    "description": "",
    "tags": {
      "leisure": "playground",
      "name": "Taman Bermain"
    }
  },
  {
    "id": 1933156592,
    "type": "wisata",
    "name": "Hotel \"Nur Alam\"",
    "category": "hotel",
    "lat": -6.8086722,
    "lon": 107.6272213,
    "address": "Desa Cibogo",
    "phone": "",
    "website": "",
    "openingHours": "",
    "description": "",
    "tags": {
      "access:roof": "yes",
      "addr:full": "Desa Cibogo",
      "building:levels": "3",
      "building:roof": "tile",
      "building:structure": "reinforced_masonry",
      "building:walls": "brick",
      "capacity:persons": "200",
      "name": "Hotel \"Nur Alam\"",
      "tourism": "hotel"
    }
  },
  {
    "id": 1933156599,
    "type": "wisata",
    "name": "Puteri Gunung Hotel",
    "category": "hotel",
    "lat": -6.8108194,
    "lon": 107.6294258,
    "address": "",
    "phone": "",
    "website": "",
    "openingHours": "",
    "description": "",
    "tags": {
      "name": "Puteri Gunung Hotel",
      "tourism": "hotel"
    }
  },
  {
    "id": 1933271520,
    "type": "wisata",
    "name": "Kampung Legok",
    "category": "restaurant",
    "lat": -6.8113108,
    "lon": 107.5998908,
    "address": "Jl. Kolonel Masturi",
    "phone": "",
    "website": "",
    "openingHours": "",
    "description": "",
    "tags": {
      "access:roof": "no",
      "addr:full": "Jl. Kolonel Masturi",
      "amenity": "restaurant",
      "building:levels": "1",
      "building:roof": "tile",
      "building:structure": "reinforced_masonry",
      "building:walls": "brick",
      "cuisine": "Sunda",
      "ele": "5",
      "name": "Kampung Legok"
    }
  },
  {
    "id": 1934965927,
    "type": "wisata",
    "name": "alam sari",
    "category": "hotel",
    "lat": -6.7866267,
    "lon": 107.6539408,
    "address": "jln raya cikole",
    "phone": "",
    "website": "",
    "openingHours": "",
    "description": "",
    "tags": {
      "access:roof": "yes",
      "addr:full": "jln raya cikole",
      "building:levels": "2",
      "building:roof": "tile",
      "building:structure": "unreinforced_masonry",
      "building:walls": "brick",
      "capacity:persons": "50",
      "name": "alam sari",
      "tourism": "hotel"
    }
  },
  {
    "id": 1934965960,
    "type": "wisata",
    "name": "grafika",
    "category": "hotel",
    "lat": -6.784943,
    "lon": 107.6515695,
    "address": "jln raya cikole",
    "phone": "",
    "website": "",
    "openingHours": "",
    "description": "",
    "tags": {
      "access:roof": "yes",
      "addr:full": "jln raya cikole",
      "building:levels": "2",
      "building:roof": "tile",
      "building:structure": "unreinforced_masonry",
      "building:walls": "brick",
      "name": "grafika",
      "tourism": "hotel"
    }
  },
  {
    "id": 1956516949,
    "type": "wisata",
    "name": "SPBU Dago",
    "category": "cafe",
    "lat": -6.869002,
    "lon": 107.6208824,
    "address": "",
    "phone": "",
    "website": "",
    "openingHours": "",
    "description": "",
    "tags": {
      "amenity": "cafe",
      "name": "SPBU Dago",
      "name:en": "Spbu"
    }
  },
  {
    "id": 1956969150,
    "type": "wisata",
    "name": "Museum Siliwangi",
    "category": "museum",
    "lat": -6.9171828,
    "lon": 107.6110914,
    "address": "Jalan Lembong",
    "phone": "",
    "website": "",
    "openingHours": "Mo-Th 08:00-13:00; Fr 08:00-10:00; Sa 08:00-12:00",
    "description": "Army museum",
    "tags": {
      "addr:housenumber": "38",
      "addr:street": "Jalan Lembong",
      "description": "Army museum",
      "fee": "no",
      "name": "Museum Siliwangi",
      "opening_hours": "Mo-Th 08:00-13:00; Fr 08:00-10:00; Sa 08:00-12:00",
      "tourism": "museum"
    }
  },
  {
    "id": 1957918316,
    "type": "wisata",
    "name": "Tirtalega",
    "category": "swimming_pool",
    "lat": -6.9357627,
    "lon": 107.6056659,
    "address": "",
    "phone": "",
    "website": "",
    "openingHours": "",
    "description": "",
    "tags": {
      "leisure": "swimming_pool",
      "name": "Tirtalega",
      "sport": "swimming"
    }
  },
  {
    "id": 1960084319,
    "type": "wisata",
    "name": "Tenis Lapang Komp.Dosen UNPAD",
    "category": "pitch",
    "lat": -6.8693923,
    "lon": 107.6210693,
    "address": "",
    "phone": "",
    "website": "",
    "openingHours": "",
    "description": "",
    "tags": {
      "leisure": "pitch",
      "name": "Tenis Lapang Komp.Dosen UNPAD",
      "sport": "tennis"
    }
  },
  {
    "id": 1960302561,
    "type": "wisata",
    "name": "Tennis Lap Sheraton Hotel's",
    "category": "pitch",
    "lat": -6.8750975,
    "lon": 107.6196433,
    "address": "",
    "phone": "",
    "website": "",
    "openingHours": "",
    "description": "",
    "tags": {
      "leisure": "pitch",
      "name": "Tennis Lap Sheraton Hotel's",
      "sport": "tennis"
    }
  },
  {
    "id": 1966161303,
    "type": "wisata",
    "name": "Lapang Olah Raga SMK PGRI 4",
    "category": "stadium",
    "lat": -6.9593249,
    "lon": 107.6517395,
    "address": "",
    "phone": "",
    "website": "",
    "openingHours": "",
    "description": "",
    "tags": {
      "leisure": "stadium",
      "name": "Lapang Olah Raga SMK PGRI 4"
    }
  },
  {
    "id": 1966520513,
    "type": "wisata",
    "name": "Giri Harja",
    "category": "pitch",
    "lat": -6.9163673,
    "lon": 107.7656597,
    "address": "",
    "phone": "",
    "website": "",
    "openingHours": "",
    "description": "",
    "tags": {
      "leisure": "pitch",
      "name": "Giri Harja",
      "sport": "golf"
    }
  },
  {
    "id": 1969331832,
    "type": "wisata",
    "name": "Bumi Saunggaling",
    "category": "hotel",
    "lat": -6.9007662,
    "lon": 107.6093277,
    "address": "",
    "phone": "",
    "website": "",
    "openingHours": "",
    "description": "",
    "tags": {
      "name": "Bumi Saunggaling",
      "tourism": "hotel"
    }
  },
  {
    "id": 1969331842,
    "type": "wisata",
    "name": "Pizza Hut",
    "category": "restaurant",
    "lat": -6.9009712,
    "lon": 107.6125356,
    "address": "",
    "phone": "",
    "website": "",
    "openingHours": "",
    "description": "",
    "tags": {
      "amenity": "restaurant",
      "brand": "Pizza Hut",
      "brand:wikidata": "Q191615",
      "cuisine": "pizza",
      "name": "Pizza Hut"
    }
  },
  {
    "id": 2016397751,
    "type": "wisata",
    "name": "Cherry Homes",
    "category": "hotel",
    "lat": -6.8872528,
    "lon": 107.5839909,
    "address": "",
    "phone": "",
    "website": "",
    "openingHours": "",
    "description": "",
    "tags": {
      "name": "Cherry Homes",
      "tourism": "hotel"
    }
  },
  {
    "id": 2025175529,
    "type": "wisata",
    "name": "Wisata Tanpa Nama",
    "category": "swimming_pool",
    "lat": -6.9438665,
    "lon": 107.6244719,
    "address": "",
    "phone": "",
    "website": "",
    "openingHours": "",
    "description": "",
    "tags": {
      "leisure": "swimming_pool",
      "sport": "swimming"
    }
  },
  {
    "id": 2039449490,
    "type": "wisata",
    "name": "Hotel Gegerkalong Asri",
    "category": "hotel",
    "lat": -6.8682763,
    "lon": 107.5852847,
    "address": "",
    "phone": "",
    "website": "",
    "openingHours": "",
    "description": "",
    "tags": {
      "name": "Hotel Gegerkalong Asri",
      "tourism": "hotel"
    }
  },
  {
    "id": 2095980185,
    "type": "wisata",
    "name": "Kedai Bibie",
    "category": "restaurant",
    "lat": -6.8689658,
    "lon": 107.5939841,
    "address": "",
    "phone": "",
    "website": "",
    "openingHours": "",
    "description": "",
    "tags": {
      "amenity": "restaurant",
      "name": "Kedai Bibie",
      "source": "survey"
    }
  },
  {
    "id": 2186948282,
    "type": "wisata",
    "name": "titik ukur gas vulkanik 1",
    "category": "viewpoint",
    "lat": -6.7623625,
    "lon": 107.6177072,
    "address": "",
    "phone": "",
    "website": "",
    "openingHours": "",
    "description": "",
    "tags": {
      "name": "titik ukur gas vulkanik 1",
      "tourism": "viewpoint"
    }
  },
  {
    "id": 2186948283,
    "type": "wisata",
    "name": "titik ukur gas vulkanik 2",
    "category": "viewpoint",
    "lat": -6.7615862,
    "lon": 107.6176077,
    "address": "",
    "phone": "",
    "website": "",
    "openingHours": "",
    "description": "",
    "tags": {
      "name": "titik ukur gas vulkanik 2",
      "tourism": "viewpoint"
    }
  },
  {
    "id": 2186948284,
    "type": "wisata",
    "name": "titik ukur gas vulaknik 3",
    "category": "viewpoint",
    "lat": -6.7599791,
    "lon": 107.6188595,
    "address": "",
    "phone": "",
    "website": "",
    "openingHours": "",
    "description": "",
    "tags": {
      "name": "titik ukur gas vulaknik 3",
      "tourism": "viewpoint"
    }
  },
  {
    "id": 2186948285,
    "type": "wisata",
    "name": "titik ukur gas vulkanik 4",
    "category": "viewpoint",
    "lat": -6.7585916,
    "lon": 107.6185877,
    "address": "",
    "phone": "",
    "website": "",
    "openingHours": "",
    "description": "",
    "tags": {
      "name": "titik ukur gas vulkanik 4",
      "tourism": "viewpoint"
    }
  },
  {
    "id": 2186948286,
    "type": "wisata",
    "name": "titik ukur gas vulkanik 5",
    "category": "viewpoint",
    "lat": -6.7578037,
    "lon": 107.6181293,
    "address": "",
    "phone": "",
    "website": "",
    "openingHours": "",
    "description": "",
    "tags": {
      "name": "titik ukur gas vulkanik 5",
      "tourism": "viewpoint"
    }
  },
  {
    "id": 2186948287,
    "type": "wisata",
    "name": "titik ukur gas vulkanik 6",
    "category": "viewpoint",
    "lat": -6.7584378,
    "lon": 107.6102204,
    "address": "",
    "phone": "",
    "website": "",
    "openingHours": "",
    "description": "",
    "tags": {
      "name": "titik ukur gas vulkanik 6",
      "tourism": "viewpoint"
    }
  },
  {
    "id": 2186948288,
    "type": "wisata",
    "name": "titik ukur gas vulkanik 7",
    "category": "viewpoint",
    "lat": -6.7565669,
    "lon": 107.6109411,
    "address": "",
    "phone": "",
    "website": "",
    "openingHours": "",
    "description": "",
    "tags": {
      "name": "titik ukur gas vulkanik 7",
      "tourism": "viewpoint"
    }
  },
  {
    "id": 2258183015,
    "type": "wisata",
    "name": "Kampung Baso",
    "category": "restaurant",
    "lat": -6.8561749,
    "lon": 107.5958927,
    "address": "",
    "phone": "",
    "website": "",
    "openingHours": "",
    "description": "",
    "tags": {
      "amenity": "restaurant",
      "cuisine": "regional",
      "name": "Kampung Baso"
    }
  },
  {
    "id": 2429250526,
    "type": "wisata",
    "name": "Kampung Daun",
    "category": "restaurant",
    "lat": -6.816085,
    "lon": 107.589551,
    "address": "Jalan Sersan Bajuri",
    "phone": "",
    "website": "http://kampungdaun.co.id",
    "openingHours": "",
    "description": "",
    "tags": {
      "addr:city": "Bandung",
      "addr:housenumber": "#KM 4,7",
      "addr:postcode": "40559",
      "addr:street": "Jalan Sersan Bajuri",
      "amenity": "restaurant",
      "name": "Kampung Daun",
      "website": "http://kampungdaun.co.id"
    }
  },
  {
    "id": 2429254335,
    "type": "wisata",
    "name": "Atmosphere Resort Cafe",
    "category": "restaurant",
    "lat": -6.9267334,
    "lon": 107.6132906,
    "address": "Jalan Lengkong Besar",
    "phone": "",
    "website": "",
    "openingHours": "",
    "description": "",
    "tags": {
      "addr:city": "Bandung",
      "addr:housenumber": "#97",
      "addr:postcode": "40261",
      "addr:street": "Jalan Lengkong Besar",
      "amenity": "restaurant",
      "name": "Atmosphere Resort Cafe",
      "name:en": "Atmosphere"
    }
  },
  {
    "id": 2429258324,
    "type": "wisata",
    "name": "Baso Malang Enggal",
    "category": "restaurant",
    "lat": -6.924869,
    "lon": 107.6196988,
    "address": "",
    "phone": "",
    "website": "",
    "openingHours": "",
    "description": "",
    "tags": {
      "amenity": "restaurant",
      "name": "Baso Malang Enggal"
    }
  },
  {
    "id": 2429262280,
    "type": "wisata",
    "name": "Pempek Pak Raden",
    "category": "restaurant",
    "lat": -6.8879183,
    "lon": 107.615515,
    "address": "Jalan Dipatiukur",
    "phone": "",
    "website": "",
    "openingHours": "",
    "description": "",
    "tags": {
      "addr:housenumber": "94",
      "addr:street": "Jalan Dipatiukur",
      "amenity": "restaurant",
      "name": "Pempek Pak Raden"
    }
  },
  {
    "id": 2490686956,
    "type": "wisata",
    "name": "Baso Semar",
    "category": "restaurant",
    "lat": -6.9198235,
    "lon": 107.6170063,
    "address": "",
    "phone": "",
    "website": "",
    "openingHours": "",
    "description": "",
    "tags": {
      "amenity": "restaurant",
      "name": "Baso Semar"
    }
  },
  {
    "id": 2490687089,
    "type": "wisata",
    "name": "Papandayan",
    "category": "hotel",
    "lat": -6.9231465,
    "lon": 107.6237011,
    "address": "",
    "phone": "",
    "website": "",
    "openingHours": "",
    "description": "",
    "tags": {
      "name": "Papandayan",
      "tourism": "hotel"
    }
  },
  {
    "id": 2491840024,
    "type": "wisata",
    "name": "Warung Steak and Shake",
    "category": "restaurant",
    "lat": -6.9230613,
    "lon": 107.6131868,
    "address": "",
    "phone": "",
    "website": "",
    "openingHours": "",
    "description": "",
    "tags": {
      "amenity": "restaurant",
      "name": "Warung Steak and Shake"
    }
  },
  {
    "id": 2491855814,
    "type": "wisata",
    "name": "Bloemen",
    "category": "restaurant",
    "lat": -6.8880195,
    "lon": 107.6016212,
    "address": "",
    "phone": "",
    "website": "",
    "openingHours": "",
    "description": "",
    "tags": {
      "amenity": "restaurant",
      "name": "Bloemen"
    }
  },
  {
    "id": 2492054087,
    "type": "wisata",
    "name": "Gokana",
    "category": "restaurant",
    "lat": -6.8936141,
    "lon": 107.6057343,
    "address": "",
    "phone": "",
    "website": "",
    "openingHours": "",
    "description": "",
    "tags": {
      "amenity": "restaurant",
      "cuisine": "japanese",
      "name": "Gokana"
    }
  },
  {
    "id": 2494582240,
    "type": "wisata",
    "name": "Kopi Panggang",
    "category": "restaurant",
    "lat": -6.8696348,
    "lon": 107.6202679,
    "address": "",
    "phone": "",
    "website": "",
    "openingHours": "",
    "description": "",
    "tags": {
      "amenity": "restaurant",
      "name": "Kopi Panggang"
    }
  },
  {
    "id": 2494582243,
    "type": "wisata",
    "name": "Lawangwangi Cafe & Creative Space",
    "category": "restaurant",
    "lat": -6.8476429,
    "lon": 107.6275129,
    "address": "Jalan Dago Giri",
    "phone": "",
    "website": "",
    "openingHours": "",
    "description": "",
    "tags": {
      "addr:city": "Bandung",
      "addr:housenumber": "#99A-101",
      "addr:postcode": "40563",
      "addr:street": "Jalan Dago Giri",
      "amenity": "restaurant",
      "name": "Lawangwangi Cafe & Creative Space"
    }
  },
  {
    "id": 2494627703,
    "type": "wisata",
    "name": "Parakan Wangi",
    "category": "hotel",
    "lat": -6.9498041,
    "lon": 107.6280034,
    "address": "",
    "phone": "",
    "website": "",
    "openingHours": "",
    "description": "",
    "tags": {
      "name": "Parakan Wangi",
      "tourism": "hotel"
    }
  },
  {
    "id": 2494655270,
    "type": "wisata",
    "name": "The Summit Siliwangi",
    "category": "hotel",
    "lat": -6.9077241,
    "lon": 107.6129293,
    "address": "",
    "phone": "",
    "website": "",
    "openingHours": "",
    "description": "",
    "tags": {
      "name": "The Summit Siliwangi",
      "tourism": "hotel"
    }
  },
  {
    "id": 2496127734,
    "type": "wisata",
    "name": "Gudeg Banda",
    "category": "restaurant",
    "lat": -6.9067229,
    "lon": 107.6208472,
    "address": "",
    "phone": "",
    "website": "",
    "openingHours": "",
    "description": "",
    "tags": {
      "amenity": "restaurant",
      "name": "Gudeg Banda"
    }
  },
  {
    "id": 2496127739,
    "type": "wisata",
    "name": "Soes Merdeka",
    "category": "restaurant",
    "lat": -6.9069786,
    "lon": 107.6208901,
    "address": "",
    "phone": "",
    "website": "",
    "openingHours": "",
    "description": "",
    "tags": {
      "amenity": "restaurant",
      "name": "Soes Merdeka"
    }
  },
  {
    "id": 2496127740,
    "type": "wisata",
    "name": "Bebek van Java",
    "category": "restaurant",
    "lat": -6.907068,
    "lon": 107.6200544,
    "address": "",
    "phone": "",
    "website": "",
    "openingHours": "",
    "description": "",
    "tags": {
      "amenity": "restaurant",
      "name": "Bebek van Java"
    }
  },
  {
    "id": 2496127741,
    "type": "wisata",
    "name": "d' Palm",
    "category": "restaurant",
    "lat": -6.9071277,
    "lon": 107.6196671,
    "address": "Jalan Lombok",
    "phone": "",
    "website": "",
    "openingHours": "",
    "description": "",
    "tags": {
      "addr:city": "Bandung",
      "addr:housenumber": "45",
      "addr:street": "Jalan Lombok",
      "amenity": "restaurant",
      "name": "d' Palm"
    }
  },
  {
    "id": 2496127742,
    "type": "wisata",
    "name": "Warung Steak and Shake",
    "category": "restaurant",
    "lat": -6.9104934,
    "lon": 107.6184011,
    "address": "",
    "phone": "",
    "website": "",
    "openingHours": "",
    "description": "",
    "tags": {
      "amenity": "restaurant",
      "name": "Warung Steak and Shake"
    }
  },
  {
    "id": 2497173677,
    "type": "wisata",
    "name": "Mujigae",
    "category": "restaurant",
    "lat": -6.8937286,
    "lon": 107.6050758,
    "address": "",
    "phone": "",
    "website": "",
    "openingHours": "",
    "description": "",
    "tags": {
      "amenity": "restaurant",
      "cuisine": "korean",
      "name": "Mujigae"
    }
  },
  {
    "id": 2497173678,
    "type": "wisata",
    "name": "Gigglebox",
    "category": "restaurant",
    "lat": -6.8931108,
    "lon": 107.6050973,
    "address": "",
    "phone": "",
    "website": "",
    "openingHours": "",
    "description": "",
    "tags": {
      "amenity": "restaurant",
      "level": "2",
      "name": "Gigglebox"
    }
  },
  {
    "id": 2497173763,
    "type": "wisata",
    "name": "Pizza Hut Ristorante",
    "category": "restaurant",
    "lat": -6.9110685,
    "lon": 107.6267052,
    "address": "",
    "phone": "",
    "website": "",
    "openingHours": "Mo-Su 10:00-22:00",
    "description": "",
    "tags": {
      "amenity": "restaurant",
      "brand": "Pizza Hut",
      "brand:wikidata": "Q191615",
      "cuisine": "pizza",
      "dish": "pizza",
      "name": "Pizza Hut Ristorante",
      "opening_hours": "Mo-Su 10:00-22:00"
    }
  },
  {
    "id": 2670043323,
    "type": "wisata",
    "name": "Bivak III",
    "category": "camp_site",
    "lat": -6.7457096,
    "lon": 107.5761582,
    "address": "",
    "phone": "",
    "website": "",
    "openingHours": "",
    "description": "",
    "tags": {
      "name": "Bivak III",
      "tourism": "camp_site"
    }
  },
  {
    "id": 2670043325,
    "type": "wisata",
    "name": "Bivak IV",
    "category": "camp_site",
    "lat": -6.7424031,
    "lon": 107.5841094,
    "address": "",
    "phone": "",
    "website": "",
    "openingHours": "",
    "description": "",
    "tags": {
      "name": "Bivak IV",
      "tourism": "camp_site"
    }
  },
  {
    "id": 2670043327,
    "type": "wisata",
    "name": "Dopper baru",
    "category": "camp_site",
    "lat": -6.7394254,
    "lon": 107.5834056,
    "address": "",
    "phone": "",
    "website": "",
    "openingHours": "",
    "description": "",
    "tags": {
      "name": "Dopper baru",
      "tourism": "camp_site"
    }
  },
  {
    "id": 2670043330,
    "type": "wisata",
    "name": "Bivak",
    "category": "camp_site",
    "lat": -6.7421885,
    "lon": 107.582078,
    "address": "",
    "phone": "",
    "website": "",
    "openingHours": "",
    "description": "",
    "tags": {
      "name": "Bivak",
      "tourism": "camp_site"
    }
  },
  {
    "id": 2670043543,
    "type": "wisata",
    "name": "Bivak VI",
    "category": "camp_site",
    "lat": -6.7448868,
    "lon": 107.574397,
    "address": "",
    "phone": "",
    "website": "",
    "openingHours": "",
    "description": "",
    "tags": {
      "name": "Bivak VI",
      "tourism": "camp_site"
    }
  },
  {
    "id": 2725732963,
    "type": "wisata",
    "name": "Warung Nasi Kang EWOK",
    "category": "restaurant",
    "lat": -6.9052749,
    "lon": 107.5961955,
    "address": "Astina",
    "phone": "+62 22 6038 783, +62 22 9203 5359",
    "website": "",
    "openingHours": "",
    "description": "",
    "tags": {
      "addr:city": "Bandung",
      "addr:housenumber": "16",
      "addr:street": "Astina",
      "amenity": "restaurant",
      "capacity": "50",
      "cuisine": "sundanese",
      "name": "Warung Nasi Kang EWOK",
      "phone": "+62 22 6038 783, +62 22 9203 5359"
    }
  },
  {
    "id": 2828409793,
    "type": "wisata",
    "name": "Rumah Makan Marannu",
    "category": "restaurant",
    "lat": -6.9112066,
    "lon": 107.6273321,
    "address": "",
    "phone": "",
    "website": "",
    "openingHours": "",
    "description": "",
    "tags": {
      "amenity": "restaurant",
      "cuisine": "makassar",
      "name": "Rumah Makan Marannu",
      "name:en": "Marannu"
    }
  },
  {
    "id": 2884834362,
    "type": "wisata",
    "name": "Dusun Bambu",
    "category": "family_park",
    "lat": -6.7899841,
    "lon": 107.5786457,
    "address": "Jalan Kolonel Masturi",
    "phone": "",
    "website": "",
    "openingHours": "",
    "description": "",
    "tags": {
      "addr:city": "Bandung",
      "addr:housenumber": "#KM 11",
      "addr:postcode": "40551",
      "addr:street": "Jalan Kolonel Masturi",
      "leisure": "family_park",
      "name": "Dusun Bambu"
    }
  },
  {
    "id": 3001806573,
    "type": "wisata",
    "name": "Chicken Farms",
    "category": "restaurant",
    "lat": -6.9196306,
    "lon": 107.5935729,
    "address": "Jendral Sudirman",
    "phone": "",
    "website": "",
    "openingHours": "09:00-21:00",
    "description": "",
    "tags": {
      "addr:city": "Bandung",
      "addr:housenumber": "299",
      "addr:postcode": "40241",
      "addr:street": "Jendral Sudirman",
      "amenity": "restaurant",
      "capacity": "125",
      "check_date:opening_hours": "2023-07-23",
      "cuisine": "chicken",
      "name": "Chicken Farms",
      "opening_hours": "09:00-21:00",
      "smoking": "separated"
    }
  },
  {
    "id": 3017729954,
    "type": "wisata",
    "name": "Kantin Salman",
    "category": "restaurant",
    "lat": -6.8942667,
    "lon": 107.610979,
    "address": "",
    "phone": "",
    "website": "",
    "openingHours": "",
    "description": "",
    "tags": {
      "amenity": "restaurant",
      "cuisine": "regional",
      "name": "Kantin Salman"
    }
  },
  {
    "id": 3017729959,
    "type": "wisata",
    "name": "Kantin GKU",
    "category": "restaurant",
    "lat": -6.8903481,
    "lon": 107.6087349,
    "address": "",
    "phone": "",
    "website": "",
    "openingHours": "",
    "description": "",
    "tags": {
      "amenity": "restaurant",
      "name": "Kantin GKU"
    }
  },
  {
    "id": 3017729960,
    "type": "wisata",
    "name": "Kantin Borju",
    "category": "restaurant",
    "lat": -6.8905771,
    "lon": 107.6093626,
    "address": "",
    "phone": "",
    "website": "",
    "openingHours": "",
    "description": "",
    "tags": {
      "amenity": "restaurant",
      "name": "Kantin Borju"
    }
  },
  {
    "id": 3017729961,
    "type": "wisata",
    "name": "Kantin Barak",
    "category": "restaurant",
    "lat": -6.8917009,
    "lon": 107.6116156,
    "address": "",
    "phone": "",
    "website": "",
    "openingHours": "",
    "description": "",
    "tags": {
      "amenity": "restaurant",
      "name": "Kantin Barak"
    }
  },
  {
    "id": 3017729963,
    "type": "wisata",
    "name": "KBL",
    "category": "restaurant",
    "lat": -6.8883084,
    "lon": 107.6088476,
    "address": "",
    "phone": "",
    "website": "",
    "openingHours": "",
    "description": "",
    "tags": {
      "amenity": "restaurant",
      "name": "KBL"
    }
  },
  {
    "id": 3029675873,
    "type": "wisata",
    "name": "Wisma Joglo Hotel",
    "category": "motel",
    "lat": -6.8635501,
    "lon": 107.6459406,
    "address": "",
    "phone": "",
    "website": "",
    "openingHours": "",
    "description": "",
    "tags": {
      "name": "Wisma Joglo Hotel",
      "tourism": "motel"
    }
  },
  {
    "id": 3029767270,
    "type": "wisata",
    "name": "Wisata Tanpa Nama",
    "category": "hotel",
    "lat": -6.8628816,
    "lon": 107.6277834,
    "address": "",
    "phone": "",
    "website": "",
    "openingHours": "",
    "description": "",
    "tags": {
      "tourism": "hotel"
    }
  },
  {
    "id": 3029767271,
    "type": "wisata",
    "name": "Wisata Tanpa Nama",
    "category": "hotel",
    "lat": -6.8634509,
    "lon": 107.6340367,
    "address": "Lembah Pakar Timur",
    "phone": "",
    "website": "",
    "openingHours": "",
    "description": "",
    "tags": {
      "addr:city": "Bandung, Jawa Barat",
      "addr:housenumber": "28",
      "addr:postcode": "40119",
      "addr:street": "Lembah Pakar Timur",
      "tourism": "hotel"
    }
  },
  {
    "id": 3029767273,
    "type": "wisata",
    "name": "Wisata Tanpa Nama",
    "category": "hotel",
    "lat": -6.8664096,
    "lon": 107.6258097,
    "address": "",
    "phone": "",
    "website": "",
    "openingHours": "",
    "description": "",
    "tags": {
      "tourism": "hotel"
    }
  },
  {
    "id": 3029767274,
    "type": "wisata",
    "name": "Wisata Tanpa Nama",
    "category": "cafe",
    "lat": -6.8643925,
    "lon": 107.6278981,
    "address": "Bukit Pakar Timur IV Kav B1",
    "phone": "",
    "website": "",
    "openingHours": "",
    "description": "",
    "tags": {
      "addr:city": "Bandung, Jawa Barat",
      "addr:postcode": "40154",
      "addr:street": "Bukit Pakar Timur IV Kav B1",
      "amenity": "cafe"
    }
  },
  {
    "id": 3029772513,
    "type": "wisata",
    "name": "Dago Highland Resort",
    "category": "hotel",
    "lat": -6.8630028,
    "lon": 107.6464113,
    "address": "Bukit Dago Pakar Timur 4",
    "phone": "+62 22 2508080",
    "website": "www.thedagohighland.com",
    "openingHours": "",
    "description": "",
    "tags": {
      "addr:city": "Bandung, Jawa Barat",
      "addr:housenumber": "88",
      "addr:postcode": "40198",
      "addr:street": "Bukit Dago Pakar Timur 4",
      "name": "Dago Highland Resort",
      "phone": "+62 22 2508080",
      "tourism": "hotel",
      "website": "www.thedagohighland.com"
    }
  },
  {
    "id": 3029779680,
    "type": "wisata",
    "name": "Wisma Joglo Hotel",
    "category": "motel",
    "lat": -6.863483,
    "lon": 107.6459595,
    "address": "Resort Raya",
    "phone": "",
    "website": "www.wismajoglo.com",
    "openingHours": "",
    "description": "",
    "tags": {
      "addr:city": "Bandung, Jawa Barat",
      "addr:housenumber": "19",
      "addr:postcode": "40198",
      "addr:street": "Resort Raya",
      "name": "Wisma Joglo Hotel",
      "tourism": "motel",
      "website": "www.wismajoglo.com"
    }
  },
  {
    "id": 3052390925,
    "type": "wisata",
    "name": "Gunung Tangkuban Parahu",
    "category": "viewpoint",
    "lat": -6.7616566,
    "lon": 107.6175131,
    "address": "",
    "phone": "",
    "website": "",
    "openingHours": "",
    "description": "",
    "tags": {
      "name": "Gunung Tangkuban Parahu",
      "tourism": "viewpoint"
    }
  },
  {
    "id": 3064180843,
    "type": "wisata",
    "name": "Wisata Tanpa Nama",
    "category": "restaurant",
    "lat": -6.8792672,
    "lon": 107.6127822,
    "address": "",
    "phone": "",
    "website": "",
    "openingHours": "",
    "description": "",
    "tags": {
      "amenity": "restaurant"
    }
  },
  {
    "id": 3064183062,
    "type": "wisata",
    "name": "Wisata Tanpa Nama",
    "category": "restaurant",
    "lat": -6.8898807,
    "lon": 107.6172141,
    "address": "",
    "phone": "",
    "website": "",
    "openingHours": "",
    "description": "",
    "tags": {
      "amenity": "restaurant"
    }
  },
  {
    "id": 3105373529,
    "type": "wisata",
    "name": "Meize Hotel - Jl. Sumbawa",
    "category": "hotel",
    "lat": -6.9148648,
    "lon": 107.6178088,
    "address": "Sumbawa",
    "phone": "+62 22 426 3888",
    "website": "https://www.meizehotel.com/",
    "openingHours": "",
    "description": "",
    "tags": {
      "addr:city": "Bandung",
      "addr:housenumber": "7",
      "addr:postcode": "40113",
      "addr:street": "Sumbawa",
      "name": "Meize Hotel - Jl. Sumbawa",
      "phone": "+62 22 426 3888",
      "tourism": "hotel",
      "website": "https://www.meizehotel.com/"
    }
  },
  {
    "id": 3148868098,
    "type": "wisata",
    "name": "Jackstar",
    "category": "restaurant",
    "lat": -6.9256802,
    "lon": 107.6276337,
    "address": "Jalan Pelajar Pejuang 45",
    "phone": "",
    "website": "",
    "openingHours": "",
    "description": "",
    "tags": {
      "addr:city": "Bandung",
      "addr:housenumber": "45",
      "addr:street": "Jalan Pelajar Pejuang 45",
      "amenity": "restaurant",
      "cuisine": "burger",
      "name": "Jackstar"
    }
  },
  {
    "id": 3155746370,
    "type": "wisata",
    "name": "Bandung Suki Restaurant",
    "category": "restaurant",
    "lat": -6.9169297,
    "lon": 107.6093123,
    "address": "Braga",
    "phone": "+62 22 420-7452",
    "website": "",
    "openingHours": "Mon-Sat: 10 AM - 10 PM, Sun & Holiday: 08 AM - 10 PM",
    "description": "",
    "tags": {
      "addr:city": "Bandung",
      "addr:housenumber": "70",
      "addr:postcode": "40111",
      "addr:street": "Braga",
      "amenity": "restaurant",
      "cuisine": "asian",
      "name": "Bandung Suki Restaurant",
      "name:en": "Bandung Suki",
      "opening_hours": "Mon-Sat: 10 AM - 10 PM, Sun & Holiday: 08 AM - 10 PM",
      "phone": "+62 22 420-7452",
      "smoking": "separated"
    }
  },
  {
    "id": 3217231611,
    "type": "wisata",
    "name": "Warung",
    "category": "restaurant",
    "lat": -6.8799982,
    "lon": 107.7562654,
    "address": "",
    "phone": "",
    "website": "",
    "openingHours": "",
    "description": "",
    "tags": {
      "amenity": "restaurant",
      "name": "Warung"
    }
  },
  {
    "id": 3217231612,
    "type": "wisata",
    "name": "Warung Makan",
    "category": "cafe",
    "lat": -6.8919748,
    "lon": 107.7641083,
    "address": "",
    "phone": "",
    "website": "",
    "openingHours": "",
    "description": "",
    "tags": {
      "amenity": "cafe",
      "name": "Warung Makan"
    }
  },
  {
    "id": 3269202627,
    "type": "wisata",
    "name": "Park Hotel",
    "category": "hotel",
    "lat": -6.899096,
    "lon": 107.6415674,
    "address": "",
    "phone": "",
    "website": "",
    "openingHours": "",
    "description": "",
    "tags": {
      "name": "Park Hotel",
      "tourism": "hotel"
    }
  },
  {
    "id": 3348067546,
    "type": "wisata",
    "name": "Rumah Bersejarah Inggit Garnasih",
    "category": "museum",
    "lat": -6.9314629,
    "lon": 107.6024885,
    "address": "Jalan Inggit Ganarsih",
    "phone": "",
    "website": "",
    "openingHours": "Mo-Su 07:00-16:00",
    "description": "Museum about Sukarno's ex-wife",
    "tags": {
      "addr:housenumber": "8",
      "addr:street": "Jalan Inggit Ganarsih",
      "description": "Museum about Sukarno's ex-wife",
      "name": "Rumah Bersejarah Inggit Garnasih",
      "opening_hours": "Mo-Su 07:00-16:00",
      "tourism": "museum"
    }
  },
  {
    "id": 3349809771,
    "type": "wisata",
    "name": "Warung Bandrek",
    "category": "restaurant",
    "lat": -6.8448579,
    "lon": 107.6541334,
    "address": "",
    "phone": "",
    "website": "",
    "openingHours": "",
    "description": "",
    "tags": {
      "alt_name": "WarBan",
      "amenity": "restaurant",
      "name": "Warung Bandrek"
    }
  },
  {
    "id": 3351632794,
    "type": "wisata",
    "name": "AEP's Nasi Goreng",
    "category": "restaurant",
    "lat": -6.869891,
    "lon": 107.5934101,
    "address": "",
    "phone": "",
    "website": "",
    "openingHours": "",
    "description": "",
    "tags": {
      "amenity": "restaurant",
      "cuisine": "asian",
      "name": "AEP's Nasi Goreng"
    }
  },
  {
    "id": 3353575236,
    "type": "wisata",
    "name": "Mercure Bandung Setiabudi",
    "category": "hotel",
    "lat": -6.8545699,
    "lon": 107.5950633,
    "address": "Jl Dr Setiabudi",
    "phone": "",
    "website": "",
    "openingHours": "",
    "description": "",
    "tags": {
      "addr:housenumber": "269-275",
      "addr:postcode": "40154",
      "addr:street": "Jl Dr Setiabudi",
      "brand": "Mercure",
      "brand:wikidata": "Q1709809",
      "brand:wikipedia": "en:Mercure (hotel)",
      "name": "Mercure Bandung Setiabudi",
      "tourism": "hotel"
    }
  },
  {
    "id": 3365192832,
    "type": "wisata",
    "name": "Verona Palace Hotel",
    "category": "hotel",
    "lat": -6.8891571,
    "lon": 107.5821297,
    "address": "Surya Sumantri",
    "phone": "",
    "website": "",
    "openingHours": "",
    "description": "",
    "tags": {
      "addr:city": "Bandung",
      "addr:street": "Surya Sumantri",
      "name": "Verona Palace Hotel",
      "tourism": "hotel"
    }
  },
  {
    "id": 3376282081,
    "type": "wisata",
    "name": "Sofyan Inn Specia",
    "category": "hotel",
    "lat": -6.93168,
    "lon": 107.6178928,
    "address": "Jalan Buah Batu",
    "phone": "",
    "website": "",
    "openingHours": "",
    "description": "",
    "tags": {
      "addr:city": "Bandung",
      "addr:housenumber": "31",
      "addr:postcode": "40262",
      "addr:street": "Jalan Buah Batu",
      "name": "Sofyan Inn Specia",
      "tourism": "hotel"
    }
  },
  {
    "id": 3376673101,
    "type": "wisata",
    "name": "Amaris Hotel Setiabudhi",
    "category": "hotel",
    "lat": -6.8736729,
    "lon": 107.5956727,
    "address": "Jalan Dr. Setiabudi",
    "phone": "",
    "website": "",
    "openingHours": "",
    "description": "",
    "tags": {
      "addr:city": "Bandung",
      "addr:housenumber": "156A",
      "addr:postcode": "40153",
      "addr:street": "Jalan Dr. Setiabudi",
      "name": "Amaris Hotel Setiabudhi",
      "ref": "Setiabudhi",
      "tourism": "hotel"
    }
  },
  {
    "id": 3376756789,
    "type": "wisata",
    "name": "Wisma Tubagus",
    "category": "guest_house",
    "lat": -6.8853338,
    "lon": 107.6163121,
    "address": "",
    "phone": "",
    "website": "",
    "openingHours": "",
    "description": "",
    "tags": {
      "name": "Wisma Tubagus",
      "tourism": "guest_house"
    }
  },
  {
    "id": 3386314313,
    "type": "wisata",
    "name": "Angkringan Losari",
    "category": "restaurant",
    "lat": -6.9188476,
    "lon": 107.6067686,
    "address": "",
    "phone": "",
    "website": "",
    "openingHours": "",
    "description": "",
    "tags": {
      "amenity": "restaurant",
      "bus": "yes",
      "name": "Angkringan Losari",
      "ref": "Banceuy/ABC"
    }
  },
  {
    "id": 3399919807,
    "type": "wisata",
    "name": "Awani Studento",
    "category": "apartment",
    "lat": -6.9320824,
    "lon": 107.7797616,
    "address": "",
    "phone": "",
    "website": "",
    "openingHours": "",
    "description": "",
    "tags": {
      "name": "Awani Studento",
      "tourism": "apartment"
    }
  },
  {
    "id": 3405488095,
    "type": "wisata",
    "name": "SM Residence Pasteur",
    "category": "hotel",
    "lat": -6.8850077,
    "lon": 107.5833177,
    "address": "Babakan Jeruk Indah",
    "phone": "",
    "website": "",
    "openingHours": "",
    "description": "",
    "tags": {
      "addr:city": "Bandung",
      "addr:housenumber": "1 / 11",
      "addr:postcode": "40163",
      "addr:street": "Babakan Jeruk Indah",
      "name": "SM Residence Pasteur",
      "smoking": "outside",
      "tourism": "hotel"
    }
  },
  {
    "id": 3421238301,
    "type": "wisata",
    "name": "Habenagen Coffeeshop",
    "category": "cafe",
    "lat": -6.9021325,
    "lon": 107.6040636,
    "address": "Cihampelas",
    "phone": "",
    "website": "",
    "openingHours": "",
    "description": "",
    "tags": {
      "addr:city": "Bandung",
      "addr:street": "Cihampelas",
      "amenity": "cafe",
      "cuisine": "coffee_shop",
      "name": "Habenagen Coffeeshop",
      "name:en": "Habenhagen"
    }
  },
  {
    "id": 3424716052,
    "type": "wisata",
    "name": "Den Haag Klappertaart",
    "category": "restaurant",
    "lat": -6.9065307,
    "lon": 107.6146911,
    "address": "",
    "phone": "",
    "website": "",
    "openingHours": "",
    "description": "",
    "tags": {
      "amenity": "restaurant",
      "name": "Den Haag Klappertaart"
    }
  },
  {
    "id": 3424716226,
    "type": "wisata",
    "name": "Vio Hotel",
    "category": "hotel",
    "lat": -6.9008276,
    "lon": 107.5980564,
    "address": "",
    "phone": "",
    "website": "",
    "openingHours": "",
    "description": "",
    "tags": {
      "name": "Vio Hotel",
      "tourism": "hotel"
    }
  },
  {
    "id": 3424716400,
    "type": "wisata",
    "name": "Sederhana",
    "category": "restaurant",
    "lat": -6.9115054,
    "lon": 107.6272212,
    "address": "Jalan Laks. R.E. Martadinata",
    "phone": "",
    "website": "",
    "openingHours": "",
    "description": "",
    "tags": {
      "addr:city": "Bandung",
      "addr:housenumber": "128",
      "addr:street": "Jalan Laks. R.E. Martadinata",
      "amenity": "restaurant",
      "name": "Sederhana"
    }
  },
  {
    "id": 3428137194,
    "type": "wisata",
    "name": "Bumbu Desa",
    "category": "restaurant",
    "lat": -6.9167335,
    "lon": 107.6307076,
    "address": "",
    "phone": "",
    "website": "",
    "openingHours": "",
    "description": "",
    "tags": {
      "amenity": "restaurant",
      "name": "Bumbu Desa"
    }
  },
  {
    "id": 3428599973,
    "type": "wisata",
    "name": "Tebu Hotel",
    "category": "hotel",
    "lat": -6.9060828,
    "lon": 107.6202185,
    "address": "",
    "phone": "",
    "website": "",
    "openingHours": "",
    "description": "",
    "tags": {
      "name": "Tebu Hotel",
      "tourism": "hotel"
    }
  },
  {
    "id": 3429603279,
    "type": "wisata",
    "name": "Ayam Bakar Wong Song",
    "category": "restaurant",
    "lat": -6.9136255,
    "lon": 107.6289496,
    "address": "",
    "phone": "",
    "website": "",
    "openingHours": "",
    "description": "",
    "tags": {
      "amenity": "restaurant",
      "name": "Ayam Bakar Wong Song"
    }
  },
  {
    "id": 3429603280,
    "type": "wisata",
    "name": "Hotel Riau",
    "category": "hotel",
    "lat": -6.9115915,
    "lon": 107.6277629,
    "address": "Jl. L. L. RE.Martadinata , Cihapit",
    "phone": "",
    "website": "",
    "openingHours": "",
    "description": "",
    "tags": {
      "addr:city": "Bandung",
      "addr:housenumber": "191",
      "addr:street": "Jl. L. L. RE.Martadinata , Cihapit",
      "name": "Hotel Riau",
      "tourism": "hotel"
    }
  },
  {
    "id": 3429603356,
    "type": "wisata",
    "name": "The Oldway Cafe",
    "category": "cafe",
    "lat": -6.9070431,
    "lon": 107.6230593,
    "address": "",
    "phone": "",
    "website": "",
    "openingHours": "",
    "description": "",
    "tags": {
      "amenity": "cafe",
      "name": "The Oldway Cafe"
    }
  },
  {
    "id": 3429872583,
    "type": "wisata",
    "name": "Cizz",
    "category": "restaurant",
    "lat": -6.9161351,
    "lon": 107.6304057,
    "address": "",
    "phone": "",
    "website": "",
    "openingHours": "",
    "description": "",
    "tags": {
      "amenity": "restaurant",
      "name": "Cizz"
    }
  },
  {
    "id": 3431431053,
    "type": "wisata",
    "name": "Kopi Anjis",
    "category": "restaurant",
    "lat": -6.9287447,
    "lon": 107.6222637,
    "address": "",
    "phone": "",
    "website": "",
    "openingHours": "",
    "description": "",
    "tags": {
      "amenity": "restaurant",
      "name": "Kopi Anjis"
    }
  },
  {
    "id": 3436699526,
    "type": "wisata",
    "name": "Pullman",
    "category": "hotel",
    "lat": -6.9003506,
    "lon": 107.6175514,
    "address": "",
    "phone": "",
    "website": "",
    "openingHours": "",
    "description": "",
    "tags": {
      "brand": "Pullman",
      "brand:wikidata": "Q3410757",
      "name": "Pullman",
      "stars": "5",
      "tourism": "hotel"
    }
  },
  {
    "id": 3506203980,
    "type": "wisata",
    "name": "Grand Pasundan Convention Hotel",
    "category": "hotel",
    "lat": -6.9367875,
    "lon": 107.5934789,
    "address": "PETA",
    "phone": "",
    "website": "",
    "openingHours": "",
    "description": "",
    "tags": {
      "addr:city": "Bandung",
      "addr:street": "PETA",
      "name": "Grand Pasundan Convention Hotel",
      "smoking": "outside",
      "tourism": "hotel"
    }
  },
  {
    "id": 3733193725,
    "type": "wisata",
    "name": "patradissa hotel",
    "category": "hotel",
    "lat": -6.911422,
    "lon": 107.601762,
    "address": "",
    "phone": "",
    "website": "",
    "openingHours": "",
    "description": "",
    "tags": {
      "atm": "no",
      "internet_access": "wlan",
      "name": "patradissa hotel",
      "source": "survey",
      "tourism": "hotel"
    }
  },
  {
    "id": 3754824465,
    "type": "wisata",
    "name": "Kopi Aroma",
    "category": "attraction",
    "lat": -6.9174718,
    "lon": 107.6062699,
    "address": "",
    "phone": "",
    "website": "",
    "openingHours": "",
    "description": "",
    "tags": {
      "name": "Kopi Aroma",
      "tourism": "attraction"
    }
  },
  {
    "id": 3757788976,
    "type": "wisata",
    "name": "Tatakan",
    "category": "restaurant",
    "lat": -6.8838733,
    "lon": 107.6150099,
    "address": "",
    "phone": "",
    "website": "",
    "openingHours": "",
    "description": "",
    "tags": {
      "amenity": "restaurant",
      "name": "Tatakan"
    }
  },
  {
    "id": 3769586144,
    "type": "wisata",
    "name": "PT Rasa",
    "category": "restaurant",
    "lat": -6.9190813,
    "lon": 107.6121627,
    "address": "",
    "phone": "",
    "website": "",
    "openingHours": "",
    "description": "",
    "tags": {
      "amenity": "restaurant",
      "name": "PT Rasa"
    }
  },
  {
    "id": 3797907540,
    "type": "wisata",
    "name": "Sop Kaki",
    "category": "restaurant",
    "lat": -6.8986257,
    "lon": 107.613195,
    "address": "Jalan Ir. H. Juanda",
    "phone": "",
    "website": "",
    "openingHours": "18:00-24:00",
    "description": "",
    "tags": {
      "addr:city": "Bandung, Jawa Barat",
      "addr:postcode": "40132",
      "addr:street": "Jalan Ir. H. Juanda",
      "amenity": "restaurant",
      "capacity": "20",
      "cuisine": "regional",
      "name": "Sop Kaki",
      "opening_hours": "18:00-24:00",
      "takeaway": "yes"
    }
  },
  {
    "id": 3797908063,
    "type": "wisata",
    "name": "Lontong Kari Gempol",
    "category": "restaurant",
    "lat": -6.9031083,
    "lon": 107.6154995,
    "address": "",
    "phone": "",
    "website": "",
    "openingHours": "06:00-10:00",
    "description": "",
    "tags": {
      "air_conditioning": "no",
      "amenity": "restaurant",
      "capacity": "5",
      "cuisine": "regional",
      "diet:halal": "yes",
      "name": "Lontong Kari Gempol",
      "opening_hours": "06:00-10:00",
      "takeaway": "yes"
    }
  },
  {
    "id": 3797908082,
    "type": "wisata",
    "name": "Bakso Arief",
    "category": "restaurant",
    "lat": -6.9045738,
    "lon": 107.6140864,
    "address": "",
    "phone": "",
    "website": "",
    "openingHours": "",
    "description": "",
    "tags": {
      "amenity": "restaurant",
      "capacity": "20",
      "cuisine": "regional",
      "name": "Bakso Arief",
      "takeaway": "yes"
    }
  },
  {
    "id": 3797908083,
    "type": "wisata",
    "name": "Dianti Daily",
    "category": "restaurant",
    "lat": -6.9045936,
    "lon": 107.6141887,
    "address": "",
    "phone": "",
    "website": "",
    "openingHours": "",
    "description": "",
    "tags": {
      "amenity": "restaurant",
      "cuisine": "regional",
      "name": "Dianti Daily"
    }
  },
  {
    "id": 3797908084,
    "type": "wisata",
    "name": "Soo Moo Hun",
    "category": "restaurant",
    "lat": -6.9046556,
    "lon": 107.6141388,
    "address": "",
    "phone": "",
    "website": "",
    "openingHours": "",
    "description": "",
    "tags": {
      "amenity": "restaurant",
      "cuisine": "korean",
      "name": "Soo Moo Hun"
    }
  },
  {
    "id": 3797908134,
    "type": "wisata",
    "name": "Kabut Salju",
    "category": "cafe",
    "lat": -6.9183143,
    "lon": 107.6143286,
    "address": "",
    "phone": "",
    "website": "",
    "openingHours": "",
    "description": "",
    "tags": {
      "amenity": "cafe",
      "cuisine": "ice_cream",
      "name": "Kabut Salju"
    }
  },
  {
    "id": 3797908148,
    "type": "wisata",
    "name": "Ayam Goreng Nikmat",
    "category": "restaurant",
    "lat": -6.919286,
    "lon": 107.6169434,
    "address": "",
    "phone": "",
    "website": "",
    "openingHours": "",
    "description": "",
    "tags": {
      "amenity": "restaurant",
      "cuisine": "chicken",
      "name": "Ayam Goreng Nikmat",
      "takeaway": "yes"
    }
  },
  {
    "id": 3802205384,
    "type": "wisata",
    "name": "Bebek Kaleyo",
    "category": "restaurant",
    "lat": -6.9007525,
    "lon": 107.5970316,
    "address": "Jalan Pasir Kaliki",
    "phone": "",
    "website": "https://www.kaleyo.com",
    "openingHours": "Mo-Sa 11:00-23:00",
    "description": "",
    "tags": {
      "addr:city": "Bandung, Jawa Barat",
      "addr:housenumber": "185-189",
      "addr:street": "Jalan Pasir Kaliki",
      "amenity": "restaurant",
      "check_date:opening_hours": "2022-08-09",
      "name": "Bebek Kaleyo",
      "opening_hours": "Mo-Sa 11:00-23:00",
      "website": "https://www.kaleyo.com"
    }
  },
  {
    "id": 3803628057,
    "type": "wisata",
    "name": "Ambun Pagi",
    "category": "restaurant",
    "lat": -6.8964177,
    "lon": 107.595882,
    "address": "",
    "phone": "",
    "website": "",
    "openingHours": "",
    "description": "",
    "tags": {
      "amenity": "restaurant",
      "cuisine": "padang",
      "name": "Ambun Pagi"
    }
  },
  {
    "id": 3806721273,
    "type": "wisata",
    "name": "Aem Pek 322 Dago",
    "category": "restaurant",
    "lat": -6.8782448,
    "lon": 107.6169053,
    "address": "",
    "phone": "",
    "website": "",
    "openingHours": "",
    "description": "",
    "tags": {
      "amenity": "restaurant",
      "name": "Aem Pek 322 Dago",
      "name:en": "Aem Pek"
    }
  },
  {
    "id": 3806721278,
    "type": "wisata",
    "name": "Baso Malang 336",
    "category": "restaurant",
    "lat": -6.878149,
    "lon": 107.6169412,
    "address": "",
    "phone": "",
    "website": "",
    "openingHours": "",
    "description": "",
    "tags": {
      "amenity": "restaurant",
      "name": "Baso Malang 336"
    }
  },
  {
    "id": 3806721279,
    "type": "wisata",
    "name": "Baso dan Batagor H.Dartowahab",
    "category": "restaurant",
    "lat": -6.8846311,
    "lon": 107.6140131,
    "address": "",
    "phone": "",
    "website": "",
    "openingHours": "",
    "description": "",
    "tags": {
      "amenity": "restaurant",
      "name": "Baso dan Batagor H.Dartowahab"
    }
  },
  {
    "id": 3806721281,
    "type": "wisata",
    "name": "Cokotetra",
    "category": "cafe",
    "lat": -6.878483,
    "lon": 107.616839,
    "address": "",
    "phone": "",
    "website": "",
    "openingHours": "",
    "description": "",
    "tags": {
      "amenity": "cafe",
      "name": "Cokotetra"
    }
  },
  {
    "id": 3806721290,
    "type": "wisata",
    "name": "Goelali",
    "category": "restaurant",
    "lat": -6.8803626,
    "lon": 107.6163564,
    "address": "",
    "phone": "",
    "website": "",
    "openingHours": "",
    "description": "",
    "tags": {
      "amenity": "restaurant",
      "name": "Goelali"
    }
  },
  {
    "id": 3806721295,
    "type": "wisata",
    "name": "Kebab Turki",
    "category": "restaurant",
    "lat": -6.8811193,
    "lon": 107.6161344,
    "address": "",
    "phone": "",
    "website": "",
    "openingHours": "",
    "description": "",
    "tags": {
      "amenity": "restaurant",
      "name": "Kebab Turki"
    }
  },
  {
    "id": 3806721296,
    "type": "wisata",
    "name": "Kedai Chinese Food Nikmat",
    "category": "restaurant",
    "lat": -6.8786715,
    "lon": 107.616787,
    "address": "",
    "phone": "",
    "website": "",
    "openingHours": "",
    "description": "",
    "tags": {
      "amenity": "restaurant",
      "cuisine": "chinese",
      "name": "Kedai Chinese Food Nikmat",
      "name:en": "Kedai Nikmat"
    }
  },
  {
    "id": 3806721297,
    "type": "wisata",
    "name": "Kedai Roti 280",
    "category": "restaurant",
    "lat": -6.8804359,
    "lon": 107.6163385,
    "address": "",
    "phone": "",
    "website": "",
    "openingHours": "",
    "description": "",
    "tags": {
      "amenity": "restaurant",
      "name": "Kedai Roti 280"
    }
  },
  {
    "id": 3806721298,
    "type": "wisata",
    "name": "Lomie & Bakmie Inam Bonjol",
    "category": "restaurant",
    "lat": -6.8811754,
    "lon": 107.6161217,
    "address": "",
    "phone": "",
    "website": "",
    "openingHours": "",
    "description": "",
    "tags": {
      "amenity": "restaurant",
      "name": "Lomie & Bakmie Inam Bonjol"
    }
  },
  {
    "id": 3806721299,
    "type": "wisata",
    "name": "Mie Baso Sapi Panghegar",
    "category": "restaurant",
    "lat": -6.8787037,
    "lon": 107.6167785,
    "address": "",
    "phone": "",
    "website": "",
    "openingHours": "",
    "description": "",
    "tags": {
      "amenity": "restaurant",
      "name": "Mie Baso Sapi Panghegar"
    }
  },
  {
    "id": 3806721300,
    "type": "wisata",
    "name": "Nasi Timbal",
    "category": "restaurant",
    "lat": -6.8788817,
    "lon": 107.6167362,
    "address": "",
    "phone": "",
    "website": "",
    "openingHours": "",
    "description": "",
    "tags": {
      "amenity": "restaurant",
      "name": "Nasi Timbal"
    }
  },
  {
    "id": 3806721308,
    "type": "wisata",
    "name": "RAMEN HOUSE YAGAMI",
    "category": "restaurant",
    "lat": -6.8845352,
    "lon": 107.6135695,
    "address": "",
    "phone": "",
    "website": "",
    "openingHours": "",
    "description": "",
    "tags": {
      "amenity": "restaurant",
      "name": "RAMEN HOUSE YAGAMI",
      "name:en": "Ramen House Yagami"
    }
  },
  {
    "id": 3806721322,
    "type": "wisata",
    "name": "Toko Restu",
    "category": "restaurant",
    "lat": -6.8834273,
    "lon": 107.6147436,
    "address": "",
    "phone": "",
    "website": "",
    "openingHours": "",
    "description": "",
    "tags": {
      "amenity": "restaurant",
      "name": "Toko Restu"
    }
  },
  {
    "id": 3806721325,
    "type": "wisata",
    "name": "YUTAKANA",
    "category": "cafe",
    "lat": -6.8834511,
    "lon": 107.6147196,
    "address": "",
    "phone": "",
    "website": "",
    "openingHours": "",
    "description": "",
    "tags": {
      "amenity": "cafe",
      "name": "YUTAKANA",
      "name:en": "Yutakana"
    }
  },
  {
    "id": 3806746614,
    "type": "wisata",
    "name": "Dendeng Batokok Dago",
    "category": "restaurant",
    "lat": -6.8767404,
    "lon": 107.6179507,
    "address": "",
    "phone": "",
    "website": "",
    "openingHours": "",
    "description": "",
    "tags": {
      "amenity": "restaurant",
      "name": "Dendeng Batokok Dago"
    }
  },
  {
    "id": 3806758498,
    "type": "wisata",
    "name": "Bakmi Jogja",
    "category": "restaurant",
    "lat": -6.8745715,
    "lon": 107.6191251,
    "address": "",
    "phone": "",
    "website": "",
    "openingHours": "",
    "description": "",
    "tags": {
      "amenity": "restaurant",
      "name": "Bakmi Jogja"
    }
  },
  {
    "id": 3806758500,
    "type": "wisata",
    "name": "Roti Gareng",
    "category": "restaurant",
    "lat": -6.8745072,
    "lon": 107.6191486,
    "address": "",
    "phone": "",
    "website": "",
    "openingHours": "",
    "description": "",
    "tags": {
      "amenity": "restaurant",
      "name": "Roti Gareng"
    }
  },
  {
    "id": 3806758502,
    "type": "wisata",
    "name": "Warteg Dua Putri",
    "category": "restaurant",
    "lat": -6.8746857,
    "lon": 107.6190813,
    "address": "",
    "phone": "",
    "website": "",
    "openingHours": "",
    "description": "",
    "tags": {
      "amenity": "restaurant",
      "name": "Warteg Dua Putri"
    }
  },
  {
    "id": 3807724904,
    "type": "wisata",
    "name": "The Silk At Dago",
    "category": "hotel",
    "lat": -6.8737345,
    "lon": 107.6195926,
    "address": "Jalan Ir. H. Juanda",
    "phone": "",
    "website": "",
    "openingHours": "",
    "description": "",
    "tags": {
      "addr:city": "Bandung",
      "addr:housenumber": "392-394",
      "addr:postcode": "40135",
      "addr:street": "Jalan Ir. H. Juanda",
      "name": "The Silk At Dago",
      "name:en": "The Silk",
      "tourism": "hotel"
    }
  },
  {
    "id": 3807746623,
    "type": "wisata",
    "name": "Bamboo Shack Cafe",
    "category": "restaurant",
    "lat": -6.8674478,
    "lon": 107.6209107,
    "address": "",
    "phone": "",
    "website": "",
    "openingHours": "",
    "description": "",
    "tags": {
      "amenity": "restaurant",
      "name": "Bamboo Shack Cafe"
    }
  },
  {
    "id": 3807746627,
    "type": "wisata",
    "name": "Kambing Soon",
    "category": "restaurant",
    "lat": -6.8717491,
    "lon": 107.620125,
    "address": "",
    "phone": "",
    "website": "",
    "openingHours": "",
    "description": "",
    "tags": {
      "amenity": "restaurant",
      "name": "Kambing Soon"
    }
  },
  {
    "id": 3807746630,
    "type": "wisata",
    "name": "Puri Tomat",
    "category": "hotel",
    "lat": -6.8713763,
    "lon": 107.6203726,
    "address": "",
    "phone": "",
    "website": "",
    "openingHours": "",
    "description": "",
    "tags": {
      "name": "Puri Tomat",
      "tourism": "hotel"
    }
  },
  {
    "id": 3807746631,
    "type": "wisata",
    "name": "Rumah Makan Pak Kumis 999",
    "category": "restaurant",
    "lat": -6.8675629,
    "lon": 107.6208871,
    "address": "",
    "phone": "",
    "website": "",
    "openingHours": "",
    "description": "",
    "tags": {
      "amenity": "restaurant",
      "name": "Rumah Makan Pak Kumis 999"
    }
  },
  {
    "id": 3807746632,
    "type": "wisata",
    "name": "SOBREMESA RESTO",
    "category": "restaurant",
    "lat": -6.8698557,
    "lon": 107.6205977,
    "address": "",
    "phone": "",
    "website": "",
    "openingHours": "",
    "description": "",
    "tags": {
      "amenity": "restaurant",
      "name": "SOBREMESA RESTO",
      "name:en": "Sobremesa"
    }
  },
  {
    "id": 3807746638,
    "type": "wisata",
    "name": "Warung Nasi Rengganis",
    "category": "restaurant",
    "lat": -6.8699337,
    "lon": 107.6204523,
    "address": "",
    "phone": "",
    "website": "",
    "openingHours": "",
    "description": "",
    "tags": {
      "amenity": "restaurant",
      "name": "Warung Nasi Rengganis"
    }
  },
  {
    "id": 3807746639,
    "type": "wisata",
    "name": "Warung Tegal Makga Jaya",
    "category": "restaurant",
    "lat": -6.8734448,
    "lon": 107.6196056,
    "address": "",
    "phone": "",
    "website": "",
    "openingHours": "",
    "description": "",
    "tags": {
      "amenity": "restaurant",
      "name": "Warung Tegal Makga Jaya"
    }
  },
  {
    "id": 3809369311,
    "type": "wisata",
    "name": "Dj Studio Pedas Gila",
    "category": "restaurant",
    "lat": -6.867961,
    "lon": 107.620412,
    "address": "",
    "phone": "",
    "website": "",
    "openingHours": "",
    "description": "",
    "tags": {
      "amenity": "restaurant",
      "name": "Dj Studio Pedas Gila"
    }
  },
  {
    "id": 3809369314,
    "type": "wisata",
    "name": "Kementerian Pertanian MESS/GUEST House",
    "category": "guest_house",
    "lat": -6.8714219,
    "lon": 107.6197149,
    "address": "",
    "phone": "",
    "website": "",
    "openingHours": "",
    "description": "",
    "tags": {
      "name": "Kementerian Pertanian MESS/GUEST House",
      "tourism": "guest_house"
    }
  },
  {
    "id": 3809369327,
    "type": "wisata",
    "name": "Warkop Pancong",
    "category": "restaurant",
    "lat": -6.8677746,
    "lon": 107.6204866,
    "address": "",
    "phone": "",
    "website": "",
    "openingHours": "",
    "description": "",
    "tags": {
      "amenity": "restaurant",
      "name": "Warkop Pancong"
    }
  },
  {
    "id": 3809369329,
    "type": "wisata",
    "name": "Wirton Dago Hotel",
    "category": "hotel",
    "lat": -6.8691116,
    "lon": 107.6201773,
    "address": "",
    "phone": "",
    "website": "",
    "openingHours": "",
    "description": "",
    "tags": {
      "name": "Wirton Dago Hotel",
      "tourism": "hotel"
    }
  },
  {
    "id": 3809662418,
    "type": "wisata",
    "name": "Ngopi Doeloe",
    "category": "restaurant",
    "lat": -6.926744,
    "lon": 107.6276202,
    "address": "",
    "phone": "",
    "website": "",
    "openingHours": "",
    "description": "",
    "tags": {
      "amenity": "restaurant",
      "name": "Ngopi Doeloe"
    }
  },
  {
    "id": 3809666546,
    "type": "wisata",
    "name": "Benua Hotel",
    "category": "hotel",
    "lat": -6.9329864,
    "lon": 107.625909,
    "address": "",
    "phone": "",
    "website": "",
    "openingHours": "",
    "description": "",
    "tags": {
      "name": "Benua Hotel",
      "tourism": "hotel"
    }
  },
  {
    "id": 3809666549,
    "type": "wisata",
    "name": "Nasi Penjara",
    "category": "restaurant",
    "lat": -6.9027187,
    "lon": 107.6136333,
    "address": "",
    "phone": "",
    "website": "",
    "openingHours": "",
    "description": "",
    "tags": {
      "amenity": "restaurant",
      "name": "Nasi Penjara"
    }
  },
  {
    "id": 3809732416,
    "type": "wisata",
    "name": "Bantal Guling Alun Alun",
    "category": "guest_house",
    "lat": -6.9319114,
    "lon": 107.606556,
    "address": "Jalan Muhammad Toha",
    "phone": "+62224211425",
    "website": "",
    "openingHours": "",
    "description": "",
    "tags": {
      "addr:city": "Bandung",
      "addr:country": "ID",
      "addr:housenumber": "42",
      "addr:postcode": "40252",
      "addr:street": "Jalan Muhammad Toha",
      "name": "Bantal Guling Alun Alun",
      "phone": "+62224211425",
      "tourism": "guest_house"
    }
  },
  {
    "id": 3813685772,
    "type": "wisata",
    "name": "Siliwangi Water Park",
    "category": "swimming_pool",
    "lat": -6.9114646,
    "lon": 107.6200327,
    "address": "",
    "phone": "",
    "website": "",
    "openingHours": "",
    "description": "",
    "tags": {
      "leisure": "swimming_pool",
      "name": "Siliwangi Water Park"
    }
  },
  {
    "id": 3815207521,
    "type": "wisata",
    "name": "Tebing Keraton",
    "category": "attraction",
    "lat": -6.8348584,
    "lon": 107.6638952,
    "address": "Kp. Ciharegem Puncak",
    "phone": "",
    "website": "",
    "openingHours": "",
    "description": "",
    "tags": {
      "addr:city": "Bandung",
      "addr:postcode": "40197",
      "addr:street": "Kp. Ciharegem Puncak",
      "name": "Tebing Keraton",
      "tourism": "attraction"
    }
  },
  {
    "id": 3816558659,
    "type": "wisata",
    "name": "Dapur Thailand",
    "category": "restaurant",
    "lat": -6.9194536,
    "lon": 107.6161559,
    "address": "Jalan Veteran",
    "phone": "+62 022 4209268",
    "website": "",
    "openingHours": "",
    "description": "",
    "tags": {
      "addr:housenumber": "44",
      "addr:street": "Jalan Veteran",
      "amenity": "restaurant",
      "name": "Dapur Thailand",
      "phone": "+62 022 4209268"
    }
  },
  {
    "id": 3818319733,
    "type": "wisata",
    "name": "Herb & Spice",
    "category": "restaurant",
    "lat": -6.9026858,
    "lon": 107.5973876,
    "address": "",
    "phone": "",
    "website": "",
    "openingHours": "",
    "description": "",
    "tags": {
      "amenity": "restaurant",
      "name": "Herb & Spice"
    }
  },
  {
    "id": 3818634238,
    "type": "wisata",
    "name": "Bakmi Jogja",
    "category": "restaurant",
    "lat": -6.8966337,
    "lon": 107.5970159,
    "address": "",
    "phone": "",
    "website": "",
    "openingHours": "",
    "description": "",
    "tags": {
      "amenity": "restaurant",
      "name": "Bakmi Jogja"
    }
  },
  {
    "id": 3818634239,
    "type": "wisata",
    "name": "Waroeng Milk and Shake",
    "category": "restaurant",
    "lat": -6.8967854,
    "lon": 107.5970217,
    "address": "",
    "phone": "",
    "website": "",
    "openingHours": "",
    "description": "",
    "tags": {
      "amenity": "restaurant",
      "name": "Waroeng Milk and Shake"
    }
  },
  {
    "id": 3820681048,
    "type": "wisata",
    "name": "Ampera",
    "category": "restaurant",
    "lat": -6.8951185,
    "lon": 107.5880348,
    "address": "Jl. Dr. Djunjunan",
    "phone": "",
    "website": "http://www.amperadalemkaum.com/?m=1",
    "openingHours": "Mo-Su 09:00-22:00",
    "description": "",
    "tags": {
      "addr:housenumber": "119D",
      "addr:street": "Jl. Dr. Djunjunan",
      "amenity": "restaurant",
      "cuisine": "Sundanese",
      "name": "Ampera",
      "opening_hours": "Mo-Su 09:00-22:00",
      "website": "http://www.amperadalemkaum.com/?m=1"
    }
  },
  {
    "id": 3902433291,
    "type": "wisata",
    "name": "restoran simpang raya",
    "category": "restaurant",
    "lat": -6.9492594,
    "lon": 107.7621724,
    "address": "",
    "phone": "",
    "website": "",
    "openingHours": "",
    "description": "",
    "tags": {
      "amenity": "restaurant",
      "name": "restoran simpang raya"
    }
  },
  {
    "id": 3902433293,
    "type": "wisata",
    "name": "sariater hot spring",
    "category": "yes",
    "lat": -6.7393834,
    "lon": 107.6540831,
    "address": "",
    "phone": "",
    "website": "",
    "openingHours": "",
    "description": "",
    "tags": {
      "entrance": "main",
      "name": "sariater hot spring",
      "tourism": "yes"
    }
  },